{"type":"FeatureCollection","features":[{"type":"Feature","properties":{"OBJECTID":1,"NAME":"Eastern State Hospital","LINK":15,"DOHLIC":0,"ADDRESS":"Maple Street   P.O. Box A","CITY":"Medical Lake","ZIP":"99022","ZIP4":"0045","PHONE":"(509) 299-4351","FAX":" ","BED_ICU":0,"BED_NURSIN":0,"BED_CHEM":0,"BED_PSY":332,"BED_ACUTE":0,"BED_TOTAL":317,"BED_LIC":0,"BASSINETTE":0,"ACUTE":"No","ICU":"No","PSYCHEM":"Yes","CAH":"No","NEON":0,"TRAUMA_P":0,"TRAUMA_G":0,"OPEN_HEART":0,"COUNTY":"SPOKANE CO.","SHORT_NAME":"Eastern State","PSC":0,"REHAB":" ","Cardiac":" ","HAI_Link":0,"VAP_Link":0,"Program":" ","PCI":0,"Stroke_L":" ","Cardiac_L":" ","Stroke":" ","Funding":"State","Dialysis":0,"Unique_id":1,"Ebola":" ","Trauma_D":" ","Beds_ER":0,"Beds_ERT":0,"Beds_OR":0,"Beds_ORT":0,"Rehab_L":" ","Trauma_H":0,"Heli":"No","Weblink":"https://www.dshs.wa.gov/bhsia/division-state-hospitals/eastern-state-hospital-overview"},"geometry":{"type":"Point","coordinates":[-117.69395067729754,47.57314563234378]}},{"type":"Feature","properties":{"OBJECTID":2,"NAME":"Madigan Army Medical Center","LINK":44,"DOHLIC":0,"ADDRESS":"Ft. Lewis","CITY":"Tacoma","ZIP":"98431","ZIP4":"5000","PHONE":"(253) 968-1215","FAX":"(253) 968-0365","BED_ICU":18,"BED_NURSIN":0,"BED_CHEM":0,"BED_PSY":0,"BED_ACUTE":299,"BED_TOTAL":240,"BED_LIC":0,"BASSINETTE":0,"ACUTE":"Yes","ICU":"No","PSYCHEM":"No","CAH":"No","NEON":3,"TRAUMA_P":0,"TRAUMA_G":2,"OPEN_HEART":0,"COUNTY":"PIERCE CO.","SHORT_NAME":"Madigan","PSC":0,"REHAB":" ","Cardiac":"No","HAI_Link":0,"VAP_Link":0,"Program":" ","PCI":0,"Stroke_L":"II","Cardiac_L":"I","Stroke":"II","Funding":"Military","Dialysis":1,"Unique_id":2,"Ebola":" ","Trauma_D":"II","Beds_ER":24,"Beds_ERT":4,"Beds_OR":17,"Beds_ORT":14,"Rehab_L":" ","Trauma_H":1,"Heli":"Yes","Weblink":"http://www.wsha.org/hospitalDetail.cfm?HID=147"},"geometry":{"type":"Point","coordinates":[-122.5522701908784,47.10866977397666]}},{"type":"Feature","properties":{"OBJECTID":3,"NAME":"PeaceHealth United General Medical Center","LINK":101,"DOHLIC":206,"ADDRESS":"2000 Hospital Drive","CITY":"Sedro-Woolley","ZIP":"98204","ZIP4":" ","PHONE":"(360) 856-6021","FAX":"(360)856-7204","BED_ICU":4,"BED_NURSIN":0,"BED_CHEM":0,"BED_PSY":26,"BED_ACUTE":97,"BED_TOTAL":25,"BED_LIC":0,"BASSINETTE":0,"ACUTE":"Yes","ICU":"No","PSYCHEM":"Yes","CAH":"Yes","NEON":4,"TRAUMA_P":0,"TRAUMA_G":4,"OPEN_HEART":0,"COUNTY":"SKAGIT CO.","SHORT_NAME":"United General","PSC":0,"REHAB":" ","Cardiac":"No","HAI_Link":0,"VAP_Link":101,"Program":"Healthcare Acquired Infections","PCI":0,"Stroke_L":"III","Cardiac_L":"II","Stroke":"III","Funding":"District","Dialysis":1,"Unique_id":3,"Ebola":" ","Trauma_D":"IV","Beds_ER":11,"Beds_ERT":3,"Beds_OR":3,"Beds_ORT":1,"Rehab_L":" ","Trauma_H":1,"Heli":"Yes","Weblink":"http://www.wsha.org/hospitalDetail.cfm?HID=4"},"geometry":{"type":"Point","coordinates":[-122.2763178596211,48.49608592156999]}},{"type":"Feature","properties":{"OBJECTID":4,"NAME":"US Air Force Hospital","LINK":100,"DOHLIC":0,"ADDRESS":"701 Hospital Loop","CITY":"Fairchild Air Force","ZIP":"98438","ZIP4":"1130","PHONE":"(509) 247-5216","FAX":"(509) 247-2170","BED_ICU":0,"BED_NURSIN":0,"BED_CHEM":0,"BED_PSY":0,"BED_ACUTE":48,"BED_TOTAL":48,"BED_LIC":0,"BASSINETTE":0,"ACUTE":"No","ICU":"No","PSYCHEM":"No","CAH":"No","NEON":0,"TRAUMA_P":0,"TRAUMA_G":0,"OPEN_HEART":0,"COUNTY":"SPOKANE CO.","SHORT_NAME":"US Air Force","PSC":0,"REHAB":" ","Cardiac":" ","HAI_Link":0,"VAP_Link":0,"Program":" ","PCI":0,"Stroke_L":" ","Cardiac_L":" ","Stroke":" ","Funding":"Military","Dialysis":0,"Unique_id":4,"Ebola":" ","Trauma_D":" ","Beds_ER":0,"Beds_ERT":0,"Beds_OR":0,"Beds_ORT":0,"Rehab_L":" ","Trauma_H":0,"Heli":"Yes","Weblink":"http://www.fairchild.af.mil/units/92ndmedicalgroup/index.asp"},"geometry":{"type":"Point","coordinates":[-117.65638735714819,47.62761391549558]}},{"type":"Feature","properties":{"OBJECTID":5,"NAME":"Mid-Valley Hospital","LINK":48,"DOHLIC":147,"ADDRESS":"810 Valley Way","CITY":"Omak","ZIP":"98841","ZIP4":" ","PHONE":"(509) 826-1760","FAX":"(509) 826-7211","BED_ICU":2,"BED_NURSIN":0,"BED_CHEM":0,"BED_PSY":0,"BED_ACUTE":40,"BED_TOTAL":25,"BED_LIC":44,"BASSINETTE":8,"ACUTE":"Yes","ICU":"Yes","PSYCHEM":"No","CAH":"Yes","NEON":1,"TRAUMA_P":0,"TRAUMA_G":4,"OPEN_HEART":0,"COUNTY":"OKANOGAN CO.","SHORT_NAME":"Mid-Valley","PSC":0,"REHAB":" ","Cardiac":"No","HAI_Link":48,"VAP_Link":48,"Program":"Healthcare Acquired Infections","PCI":0,"Stroke_L":"III","Cardiac_L":"II","Stroke":"III","Funding":"District","Dialysis":1,"Unique_id":5,"Ebola":" ","Trauma_D":"IV","Beds_ER":8,"Beds_ERT":2,"Beds_OR":3,"Beds_ORT":1,"Rehab_L":" ","Trauma_H":1,"Heli":"Yes","Weblink":"http://www.wsha.org/hospitalDetail.cfm?HID=56"},"geometry":{"type":"Point","coordinates":[-119.54652586560438,48.396567463391044]}},{"type":"Feature","properties":{"OBJECTID":6,"NAME":"St. Joseph Medical Center","LINK":80,"DOHLIC":32,"ADDRESS":"1717 Sounth \"J\" St","CITY":"Tacoma","ZIP":"98405","ZIP4":"4944","PHONE":"(253) 627-4101","FAX":"(253) 591-6789","BED_ICU":32,"BED_NURSIN":0,"BED_CHEM":0,"BED_PSY":18,"BED_ACUTE":246,"BED_TOTAL":305,"BED_LIC":320,"BASSINETTE":23,"ACUTE":"Yes","ICU":"Yes","PSYCHEM":"Yes","CAH":"No","NEON":3,"TRAUMA_P":0,"TRAUMA_G":2,"OPEN_HEART":1,"COUNTY":"PIERCE CO.","SHORT_NAME":"St. Joseph","PSC":2,"REHAB":"IIR","Cardiac":"Yes","HAI_Link":80,"VAP_Link":80,"Program":"Healthcare Acquired Infections","PCI":1,"Stroke_L":"I","Cardiac_L":"I","Stroke":"I","Funding":"Not For Profit","Dialysis":1,"Unique_id":6,"Ebola":" ","Trauma_D":"II","Beds_ER":33,"Beds_ERT":3,"Beds_OR":10,"Beds_ORT":1,"Rehab_L":"II","Trauma_H":1,"Heli":"Yes","Weblink":"http://www.wsha.org/hospitalDetail.cfm?HID=101"},"geometry":{"type":"Point","coordinates":[-122.44817488612614,47.24599095888031]}},{"type":"Feature","properties":{"OBJECTID":7,"NAME":"Mason General Hospital & Family of Clinics","LINK":47,"DOHLIC":152,"ADDRESS":"901 Mountain View Drive","CITY":"Shelton","ZIP":"98584","ZIP4":"2057","PHONE":"(360) 426-1611","FAX":"(360) 427-1921","BED_ICU":10,"BED_NURSIN":0,"BED_CHEM":0,"BED_PSY":0,"BED_ACUTE":42,"BED_TOTAL":25,"BED_LIC":68,"BASSINETTE":6,"ACUTE":"Yes","ICU":"Yes","PSYCHEM":"No","CAH":"Yes","NEON":1,"TRAUMA_P":0,"TRAUMA_G":4,"OPEN_HEART":0,"COUNTY":"MASON CO.","SHORT_NAME":"Mason General","PSC":0,"REHAB":" ","Cardiac":"No","HAI_Link":47,"VAP_Link":47,"Program":"Healthcare Acquired Infections","PCI":0,"Stroke_L":"III","Cardiac_L":"II","Stroke":"III","Funding":"District","Dialysis":1,"Unique_id":7,"Ebola":" ","Trauma_D":"IV","Beds_ER":9,"Beds_ERT":9,"Beds_OR":3,"Beds_ORT":3,"Rehab_L":" ","Trauma_H":1,"Heli":"Yes","Weblink":"http://www.wsha.org/hospitalDetail.cfm?HID=83"},"geometry":{"type":"Point","coordinates":[-123.11441495359767,47.22589088402593]}},{"type":"Feature","properties":{"OBJECTID":8,"NAME":"Morton General Hospital","LINK":49,"DOHLIC":173,"ADDRESS":"521 Adams St","CITY":"Morton","ZIP":"98356","ZIP4":"0019","PHONE":"(360) 496-5112","FAX":"(360) 496-3511","BED_ICU":0,"BED_NURSIN":6,"BED_CHEM":0,"BED_PSY":0,"BED_ACUTE":20,"BED_TOTAL":31,"BED_LIC":50,"BASSINETTE":0,"ACUTE":"Yes","ICU":"No","PSYCHEM":"No","CAH":"Yes","NEON":1,"TRAUMA_P":0,"TRAUMA_G":4,"OPEN_HEART":0,"COUNTY":"LEWIS CO.","SHORT_NAME":"Morton General","PSC":0,"REHAB":" ","Cardiac":"No","HAI_Link":0,"VAP_Link":0,"Program":" ","PCI":0,"Stroke_L":"III","Cardiac_L":"II","Stroke":"III","Funding":"District","Dialysis":1,"Unique_id":8,"Ebola":" ","Trauma_D":"IV","Beds_ER":5,"Beds_ERT":1,"Beds_OR":1,"Beds_ORT":1,"Rehab_L":" ","Trauma_H":1,"Heli":"Yes","Weblink":"http://www.wsha.org/hospitalDetail.cfm?HID=49"},"geometry":{"type":"Point","coordinates":[-122.28035439246788,46.55567480904716]}},{"type":"Feature","properties":{"OBJECTID":9,"NAME":"Snoqualmie Valley Hospital District","LINK":90,"DOHLIC":195,"ADDRESS":"9575 Ethan Wade Way SE","CITY":"Snoqualmie","ZIP":"98065","ZIP4":"2021","PHONE":"(425) 831-2300","FAX":"(425) 831-1994","BED_ICU":0,"BED_NURSIN":0,"BED_CHEM":0,"BED_PSY":0,"BED_ACUTE":28,"BED_TOTAL":25,"BED_LIC":28,"BASSINETTE":0,"ACUTE":"Yes","ICU":"No","PSYCHEM":"No","CAH":"Yes","NEON":4,"TRAUMA_P":0,"TRAUMA_G":0,"OPEN_HEART":0,"COUNTY":"KING CO.","SHORT_NAME":"Snoqualmie Valley","PSC":0,"REHAB":" ","Cardiac":"No","HAI_Link":0,"VAP_Link":0,"Program":" ","PCI":0,"Stroke_L":"III","Cardiac_L":"II","Stroke":"III","Funding":"District","Dialysis":1,"Unique_id":9,"Ebola":" ","Trauma_D":" ","Beds_ER":0,"Beds_ERT":0,"Beds_OR":0,"Beds_ORT":0,"Rehab_L":" ","Trauma_H":0,"Heli":"Yes","Weblink":"http://www.wsha.org/hospitalDetail.cfm?HID=166"},"geometry":{"type":"Point","coordinates":[-121.82645486864905,47.514499580890046]}},{"type":"Feature","properties":{"OBJECTID":10,"NAME":"Naval Hospital","LINK":51,"DOHLIC":0,"ADDRESS":"1 Boone Road","CITY":"Bremerton","ZIP":"98312","ZIP4":"1898","PHONE":"(360) 478-9232","FAX":"(360) 478-9577","BED_ICU":0,"BED_NURSIN":0,"BED_CHEM":0,"BED_PSY":0,"BED_ACUTE":106,"BED_TOTAL":66,"BED_LIC":0,"BASSINETTE":0,"ACUTE":"Yes","ICU":"No","PSYCHEM":"No","CAH":"No","NEON":1,"TRAUMA_P":0,"TRAUMA_G":0,"OPEN_HEART":0,"COUNTY":"KITSAP CO.","SHORT_NAME":"Naval","PSC":0,"REHAB":" ","Cardiac":"No","HAI_Link":0,"VAP_Link":0,"Program":" ","PCI":0,"Stroke_L":" ","Cardiac_L":" ","Stroke":"U","Funding":"Military","Dialysis":1,"Unique_id":10,"Ebola":" ","Trauma_D":" ","Beds_ER":0,"Beds_ERT":0,"Beds_OR":0,"Beds_ORT":0,"Rehab_L":" ","Trauma_H":0,"Heli":"Yes","Weblink":"http://www.wsha.org/hospitalDetail.cfm?HID=141"},"geometry":{"type":"Point","coordinates":[-122.69156053296845,47.59499771771983]}},{"type":"Feature","properties":{"OBJECTID":11,"NAME":"Veterans Affairs Medical Center","LINK":108,"DOHLIC":0,"ADDRESS":"77 Wainwright Drive","CITY":"Walla Walla","ZIP":"99362","ZIP4":"3975","PHONE":"(509) 525-5200","FAX":"(509) 527-3452","BED_ICU":0,"BED_NURSIN":0,"BED_CHEM":0,"BED_PSY":0,"BED_ACUTE":102,"BED_TOTAL":102,"BED_LIC":0,"BASSINETTE":0,"ACUTE":"No","ICU":"No","PSYCHEM":"No","CAH":"No","NEON":0,"TRAUMA_P":0,"TRAUMA_G":0,"OPEN_HEART":0,"COUNTY":"WALLA WALLA CO.","SHORT_NAME":"VA","PSC":0,"REHAB":" ","Cardiac":" ","HAI_Link":0,"VAP_Link":0,"Program":" ","PCI":0,"Stroke_L":" ","Cardiac_L":" ","Stroke":" ","Funding":"Military","Dialysis":1,"Unique_id":11,"Ebola":" ","Trauma_D":" ","Beds_ER":0,"Beds_ERT":0,"Beds_OR":0,"Beds_ORT":0,"Rehab_L":" ","Trauma_H":0,"Heli":"No","Weblink":"http://www.wallawalla.va.gov/"},"geometry":{"type":"Point","coordinates":[-118.35850331603618,46.05355340739835]}},{"type":"Feature","properties":{"OBJECTID":12,"NAME":"Lake Chelan Community Hospital","LINK":39,"DOHLIC":165,"ADDRESS":"503 Highland Ave E","CITY":"Chelan","ZIP":"98816","ZIP4":"0908","PHONE":"(509) 682-2531","FAX":"(509) 682-3475","BED_ICU":0,"BED_NURSIN":0,"BED_CHEM":6,"BED_PSY":10,"BED_ACUTE":25,"BED_TOTAL":25,"BED_LIC":34,"BASSINETTE":3,"ACUTE":"Yes","ICU":"No","PSYCHEM":"Yes","CAH":"Yes","NEON":1,"TRAUMA_P":0,"TRAUMA_G":4,"OPEN_HEART":0,"COUNTY":"CHELAN CO.","SHORT_NAME":"Lake Chelan","PSC":0,"REHAB":" ","Cardiac":"No","HAI_Link":0,"VAP_Link":0,"Program":" ","PCI":0,"Stroke_L":"III","Cardiac_L":"II","Stroke":"III","Funding":"District","Dialysis":1,"Unique_id":12,"Ebola":" ","Trauma_D":"IV","Beds_ER":5,"Beds_ERT":5,"Beds_OR":2,"Beds_ORT":2,"Rehab_L":" ","Trauma_H":1,"Heli":"Yes","Weblink":"http://www.wsha.org/hospitalDetail.cfm?HID=21"},"geometry":{"type":"Point","coordinates":[-120.00961262982558,47.84497017647781]}},{"type":"Feature","properties":{"OBJECTID":13,"NAME":"North Valley Hospital","LINK":54,"DOHLIC":107,"ADDRESS":"2nd & Western","CITY":"Tonasket","ZIP":"98855","ZIP4":"0488","PHONE":"(509) 486-2151","FAX":"(509) 486-3101","BED_ICU":0,"BED_NURSIN":70,"BED_CHEM":0,"BED_PSY":0,"BED_ACUTE":23,"BED_TOTAL":25,"BED_LIC":97,"BASSINETTE":6,"ACUTE":"Yes","ICU":"Yes","PSYCHEM":"No","CAH":"Yes","NEON":1,"TRAUMA_P":0,"TRAUMA_G":4,"OPEN_HEART":0,"COUNTY":"OKANOGAN CO.","SHORT_NAME":"North Valley","PSC":0,"REHAB":" ","Cardiac":"No","HAI_Link":0,"VAP_Link":0,"Program":" ","PCI":0,"Stroke_L":" ","Cardiac_L":" ","Stroke":"U","Funding":"District","Dialysis":1,"Unique_id":13,"Ebola":" ","Trauma_D":"IV","Beds_ER":7,"Beds_ERT":2,"Beds_OR":1,"Beds_ORT":1,"Rehab_L":" ","Trauma_H":1,"Heli":"Yes","Weblink":"http://www.wsha.org/hospitalDetail.cfm?HID=103"},"geometry":{"type":"Point","coordinates":[-119.43873124906017,48.70700188419485]}},{"type":"Feature","properties":{"OBJECTID":14,"NAME":"Ocean Beach Hospital","LINK":56,"DOHLIC":79,"ADDRESS":"First & Fir","CITY":"Ilwaco","ZIP":"98624","ZIP4":"0258","PHONE":"(360) 642-3181","FAX":"(360) 642-8070","BED_ICU":0,"BED_NURSIN":0,"BED_CHEM":0,"BED_PSY":0,"BED_ACUTE":25,"BED_TOTAL":15,"BED_LIC":25,"BASSINETTE":0,"ACUTE":"Yes","ICU":"No","PSYCHEM":"No","CAH":"Yes","NEON":4,"TRAUMA_P":0,"TRAUMA_G":4,"OPEN_HEART":0,"COUNTY":"PACIFIC CO.","SHORT_NAME":"Ocean Beach","PSC":0,"REHAB":" ","Cardiac":"No","HAI_Link":0,"VAP_Link":0,"Program":" ","PCI":0,"Stroke_L":"III","Cardiac_L":"II","Stroke":"III","Funding":"District","Dialysis":1,"Unique_id":14,"Ebola":" ","Trauma_D":"IV","Beds_ER":6,"Beds_ERT":2,"Beds_OR":2,"Beds_ORT":2,"Rehab_L":" ","Trauma_H":1,"Heli":"Yes","Weblink":"http://www.wsha.org/hospitalDetail.cfm?HID=41"},"geometry":{"type":"Point","coordinates":[-124.04263082727185,46.31143430179963]}},{"type":"Feature","properties":{"OBJECTID":15,"NAME":"Willapa Harbor Hospital","LINK":117,"DOHLIC":56,"ADDRESS":"800 Alder Street","CITY":"South Bend","ZIP":"98586","ZIP4":"0438","PHONE":"(360) 875-5526","FAX":"(360) 875-6167","BED_ICU":0,"BED_NURSIN":0,"BED_CHEM":0,"BED_PSY":0,"BED_ACUTE":23,"BED_TOTAL":15,"BED_LIC":26,"BASSINETTE":3,"ACUTE":"Yes","ICU":"Yes","PSYCHEM":"No","CAH":"Yes","NEON":4,"TRAUMA_P":0,"TRAUMA_G":5,"OPEN_HEART":0,"COUNTY":"PACIFIC CO.","SHORT_NAME":"Willapa Harbor","PSC":0,"REHAB":" ","Cardiac":"No","HAI_Link":0,"VAP_Link":0,"Program":" ","PCI":0,"Stroke_L":"III","Cardiac_L":"II","Stroke":"III","Funding":"District","Dialysis":1,"Unique_id":15,"Ebola":" ","Trauma_D":"V","Beds_ER":6,"Beds_ERT":2,"Beds_OR":1,"Beds_ORT":0,"Rehab_L":" ","Trauma_H":1,"Heli":"Yes","Weblink":"http://www.wsha.org/hospitalDetail.cfm?HID=84"},"geometry":{"type":"Point","coordinates":[-123.81229121952532,46.66282083822972]}},{"type":"Feature","properties":{"OBJECTID":16,"NAME":"Whitman Hospital and Medical Center","LINK":116,"DOHLIC":153,"ADDRESS":"1200 West Fairview Road","CITY":"Colfax","ZIP":"99111","ZIP4":"9579","PHONE":"(509) 397-3435","FAX":"(509) 397-4713","BED_ICU":0,"BED_NURSIN":5,"BED_CHEM":0,"BED_PSY":0,"BED_ACUTE":27,"BED_TOTAL":25,"BED_LIC":48,"BASSINETTE":5,"ACUTE":"Yes","ICU":"No","PSYCHEM":"No","CAH":"Yes","NEON":1,"TRAUMA_P":0,"TRAUMA_G":5,"OPEN_HEART":0,"COUNTY":"WHITMAN CO.","SHORT_NAME":"Whitman","PSC":0,"REHAB":" ","Cardiac":"No","HAI_Link":0,"VAP_Link":0,"Program":" ","PCI":0,"Stroke_L":"III","Cardiac_L":"II","Stroke":"III","Funding":"District","Dialysis":1,"Unique_id":16,"Ebola":" ","Trauma_D":"V","Beds_ER":8,"Beds_ERT":2,"Beds_OR":3,"Beds_ORT":3,"Rehab_L":" ","Trauma_H":1,"Heli":"Yes","Weblink":"http://www.wsha.org/hospitalDetail.cfm?HID=24"},"geometry":{"type":"Point","coordinates":[-117.3760497637425,46.86893031280677]}},{"type":"Feature","properties":{"OBJECTID":17,"NAME":"Skyline Hospital","LINK":89,"DOHLIC":96,"ADDRESS":"211 Skyline Dr","CITY":"White Salmon","ZIP":"98672","ZIP4":"0099","PHONE":"(509) 493-1101","FAX":"(509) 493-3270","BED_ICU":0,"BED_NURSIN":5,"BED_CHEM":0,"BED_PSY":0,"BED_ACUTE":25,"BED_TOTAL":25,"BED_LIC":32,"BASSINETTE":4,"ACUTE":"Yes","ICU":"Yes","PSYCHEM":"No","CAH":"Yes","NEON":1,"TRAUMA_P":0,"TRAUMA_G":4,"OPEN_HEART":0,"COUNTY":"KLICKITAT CO.","SHORT_NAME":"Skyline","PSC":0,"REHAB":" ","Cardiac":"No","HAI_Link":89,"VAP_Link":0,"Program":"Healthcare Acquired Infections","PCI":0,"Stroke_L":"III","Cardiac_L":"II","Stroke":"III","Funding":"District","Dialysis":1,"Unique_id":17,"Ebola":" ","Trauma_D":"IV","Beds_ER":5,"Beds_ERT":2,"Beds_OR":1,"Beds_ORT":1,"Rehab_L":" ","Trauma_H":1,"Heli":"Yes","Weblink":"http://www.wsha.org/hospitalDetail.cfm?HID=109"},"geometry":{"type":"Point","coordinates":[-121.47053067543212,45.72237924299617]}},{"type":"Feature","properties":{"OBJECTID":18,"NAME":"VA Puget Sound Health Care System - Tacoma","LINK":107,"DOHLIC":0,"ADDRESS":"9900 Veterens Drive SW","CITY":"Tacoma","ZIP":"98433","ZIP4":" ","PHONE":"(253) 582-8440","FAX":"(253) 396-6239","BED_ICU":0,"BED_NURSIN":0,"BED_CHEM":0,"BED_PSY":0,"BED_ACUTE":203,"BED_TOTAL":459,"BED_LIC":0,"BASSINETTE":0,"ACUTE":"No","ICU":"No","PSYCHEM":"No","CAH":"No","NEON":0,"TRAUMA_P":0,"TRAUMA_G":0,"OPEN_HEART":0,"COUNTY":"PIERCE CO.","SHORT_NAME":"VA","PSC":0,"REHAB":" ","Cardiac":" ","HAI_Link":0,"VAP_Link":0,"Program":" ","PCI":0,"Stroke_L":" ","Cardiac_L":" ","Stroke":" ","Funding":"Military","Dialysis":1,"Unique_id":18,"Ebola":" ","Trauma_D":" ","Beds_ER":0,"Beds_ERT":0,"Beds_OR":0,"Beds_ORT":0,"Rehab_L":" ","Trauma_H":0,"Heli":"No","Weblink":"http://www.wsha.org/hospitalDetail.cfm?HID=192"},"geometry":{"type":"Point","coordinates":[-122.57849604310395,47.13330055668254]}},{"type":"Feature","properties":{"OBJECTID":19,"NAME":"Providence Holy Family Hospital","LINK":31,"DOHLIC":139,"ADDRESS":"5633 N. Lidgerwood","CITY":"Spokane","ZIP":"99207","ZIP4":"1224","PHONE":"(509) 482-0111","FAX":"(509) 482-2456","BED_ICU":12,"BED_NURSIN":0,"BED_CHEM":0,"BED_PSY":0,"BED_ACUTE":156,"BED_TOTAL":197,"BED_LIC":272,"BASSINETTE":15,"ACUTE":"Yes","ICU":"Yes","PSYCHEM":"No","CAH":"No","NEON":2,"TRAUMA_P":0,"TRAUMA_G":3,"OPEN_HEART":0,"COUNTY":"SPOKANE CO.","SHORT_NAME":"Holy Family","PSC":2,"REHAB":" ","Cardiac":"Yes","HAI_Link":31,"VAP_Link":31,"Program":"Healthcare Acquired Infections","PCI":1,"Stroke_L":"II","Cardiac_L":"II","Stroke":"II","Funding":"Not For Profit","Dialysis":1,"Unique_id":19,"Ebola":" ","Trauma_D":"III","Beds_ER":36,"Beds_ERT":25,"Beds_OR":12,"Beds_ORT":10,"Rehab_L":" ","Trauma_H":1,"Heli":"Yes","Weblink":"http://www.wsha.org/hospitalDetail.cfm?HID=91"},"geometry":{"type":"Point","coordinates":[-117.40672503192532,47.709754421762185]}},{"type":"Feature","properties":{"OBJECTID":20,"NAME":"Odessa Memorial Healthcare Center","LINK":57,"DOHLIC":80,"ADDRESS":"502 Amende Dr E","CITY":"Odessa","ZIP":"99159","ZIP4":"0368","PHONE":"(509) 982-2611","FAX":"(509) 982-2616","BED_ICU":0,"BED_NURSIN":35,"BED_CHEM":0,"BED_PSY":0,"BED_ACUTE":15,"BED_TOTAL":25,"BED_LIC":50,"BASSINETTE":4,"ACUTE":"Yes","ICU":"No","PSYCHEM":"No","CAH":"Yes","NEON":4,"TRAUMA_P":0,"TRAUMA_G":5,"OPEN_HEART":0,"COUNTY":"LINCOLN CO.","SHORT_NAME":"Odessa Memorial","PSC":0,"REHAB":" ","Cardiac":"No","HAI_Link":0,"VAP_Link":0,"Program":" ","PCI":0,"Stroke_L":" ","Cardiac_L":"II","Stroke":"U","Funding":"District","Dialysis":1,"Unique_id":20,"Ebola":" ","Trauma_D":"V","Beds_ER":3,"Beds_ERT":1,"Beds_OR":0,"Beds_ORT":0,"Rehab_L":" ","Trauma_H":1,"Heli":"Yes","Weblink":"http://www.wsha.org/hospitalDetail.cfm?HID=53"},"geometry":{"type":"Point","coordinates":[-118.68250448167801,47.33118913805645]}},{"type":"Feature","properties":{"OBJECTID":21,"NAME":"Othello Community Hospital","LINK":60,"DOHLIC":125,"ADDRESS":"315 14th Ave N","CITY":"Othello","ZIP":"99344","ZIP4":"1297","PHONE":"(509) 488-2636","FAX":"(509) 488-3857","BED_ICU":0,"BED_NURSIN":0,"BED_CHEM":0,"BED_PSY":0,"BED_ACUTE":26,"BED_TOTAL":25,"BED_LIC":49,"BASSINETTE":5,"ACUTE":"Yes","ICU":"No","PSYCHEM":"No","CAH":"Yes","NEON":1,"TRAUMA_P":0,"TRAUMA_G":5,"OPEN_HEART":0,"COUNTY":"ADAMS CO.","SHORT_NAME":"Othello","PSC":0,"REHAB":" ","Cardiac":"No","HAI_Link":0,"VAP_Link":0,"Program":" ","PCI":0,"Stroke_L":"III","Cardiac_L":"II","Stroke":"III","Funding":"District","Dialysis":1,"Unique_id":21,"Ebola":" ","Trauma_D":"V","Beds_ER":8,"Beds_ERT":3,"Beds_OR":2,"Beds_ORT":0,"Rehab_L":" ","Trauma_H":1,"Heli":"Yes","Weblink":"http://www.wsha.org/hospitalDetail.cfm?HID=57"},"geometry":{"type":"Point","coordinates":[-119.15526145642747,46.830408825853404]}},{"type":"Feature","properties":{"OBJECTID":22,"NAME":"PeaceHealth St. John Medical Center","LINK":62,"DOHLIC":26,"ADDRESS":"1615 Delaware","CITY":"Longview","ZIP":"98632","ZIP4":"3002","PHONE":"(360) 414-2000","FAX":"(360) 414-7550","BED_ICU":7,"BED_NURSIN":0,"BED_CHEM":0,"BED_PSY":0,"BED_ACUTE":186,"BED_TOTAL":186,"BED_LIC":346,"BASSINETTE":27,"ACUTE":"Yes","ICU":"Yes","PSYCHEM":"No","CAH":"No","NEON":2,"TRAUMA_P":0,"TRAUMA_G":3,"OPEN_HEART":2,"COUNTY":"COWLITZ CO.","SHORT_NAME":"St. John","PSC":0,"REHAB":" ","Cardiac":"No","HAI_Link":62,"VAP_Link":62,"Program":"Healthcare Acquired Infections","PCI":0,"Stroke_L":"III","Cardiac_L":"II","Stroke":"III","Funding":"Not For Profit","Dialysis":1,"Unique_id":22,"Ebola":" ","Trauma_D":"III","Beds_ER":23,"Beds_ERT":4,"Beds_OR":10,"Beds_ORT":1,"Rehab_L":" ","Trauma_H":1,"Heli":"Yes","Weblink":"http://www.wsha.org/hospitalDetail.cfm?HID=46"},"geometry":{"type":"Point","coordinates":[-122.94174919675442,46.1306936323373]}},{"type":"Feature","properties":{"OBJECTID":23,"NAME":"Skagit Valley Hospital","LINK":88,"DOHLIC":207,"ADDRESS":"1415 Kincaid St E","CITY":"Mt Vernon","ZIP":"98273","ZIP4":"4190","PHONE":"(360) 424-4111","FAX":"(360) 856-7400","BED_ICU":12,"BED_NURSIN":92,"BED_CHEM":0,"BED_PSY":0,"BED_ACUTE":24,"BED_TOTAL":137,"BED_LIC":234,"BASSINETTE":24,"ACUTE":"Yes","ICU":"Yes","PSYCHEM":"No","CAH":"No","NEON":2,"TRAUMA_P":0,"TRAUMA_G":3,"OPEN_HEART":2,"COUNTY":"SKAGIT CO.","SHORT_NAME":"Skagit Valley","PSC":2,"REHAB":" ","Cardiac":"Yes","HAI_Link":88,"VAP_Link":88,"Program":"Healthcare Acquired Infections","PCI":1,"Stroke_L":"II","Cardiac_L":"I","Stroke":"II","Funding":"District","Dialysis":1,"Unique_id":23,"Ebola":" ","Trauma_D":"III","Beds_ER":23,"Beds_ERT":2,"Beds_OR":6,"Beds_ORT":6,"Rehab_L":" ","Trauma_H":1,"Heli":"Yes","Weblink":"http://www.wsha.org/hospitalDetail.cfm?HID=51"},"geometry":{"type":"Point","coordinates":[-122.3240430934073,48.41786967947481]}},{"type":"Feature","properties":{"OBJECTID":24,"NAME":"Providence St. Joseph's Hospital","LINK":81,"DOHLIC":194,"ADDRESS":"500 Webster Ave E","CITY":"Chewelah","ZIP":"99109","ZIP4":"0197","PHONE":"(509) 935-8211","FAX":"(509) 482-2560","BED_ICU":0,"BED_NURSIN":40,"BED_CHEM":0,"BED_PSY":0,"BED_ACUTE":25,"BED_TOTAL":65,"BED_LIC":65,"BASSINETTE":4,"ACUTE":"Yes","ICU":"Yes","PSYCHEM":"No","CAH":"Yes","NEON":1,"TRAUMA_P":0,"TRAUMA_G":4,"OPEN_HEART":0,"COUNTY":"STEVENS CO.","SHORT_NAME":"St. Joseph's","PSC":0,"REHAB":" ","Cardiac":"No","HAI_Link":0,"VAP_Link":0,"Program":" ","PCI":0,"Stroke_L":"III","Cardiac_L":"II","Stroke":"III","Funding":"Not For Profit","Dialysis":1,"Unique_id":24,"Ebola":" ","Trauma_D":"IV","Beds_ER":3,"Beds_ERT":2,"Beds_OR":1,"Beds_ORT":0,"Rehab_L":" ","Trauma_H":1,"Heli":"Yes","Weblink":"http://www.wsha.org/hospitalDetail.cfm?HID=22"},"geometry":{"type":"Point","coordinates":[-117.71080394836117,48.2777620323807]}},{"type":"Feature","properties":{"OBJECTID":25,"NAME":"Saint Joseph Hospital - South Campus","LINK":79,"DOHLIC":0,"ADDRESS":"809 East Chestnut","CITY":"Bellingham","ZIP":"98225","ZIP4":" ","PHONE":"na","FAX":" ","BED_ICU":0,"BED_NURSIN":0,"BED_CHEM":24,"BED_PSY":10,"BED_ACUTE":9,"BED_TOTAL":0,"BED_LIC":0,"BASSINETTE":0,"ACUTE":"No","ICU":"No","PSYCHEM":"Yes","CAH":"No","NEON":0,"TRAUMA_P":0,"TRAUMA_G":0,"OPEN_HEART":0,"COUNTY":"WHATCOM CO.","SHORT_NAME":"St. Joseph","PSC":0,"REHAB":" ","Cardiac":" ","HAI_Link":0,"VAP_Link":0,"Program":" ","PCI":0,"Stroke_L":" ","Cardiac_L":" ","Stroke":" ","Funding":"Not For Profit","Dialysis":0,"Unique_id":26,"Ebola":" ","Trauma_D":" ","Beds_ER":0,"Beds_ERT":0,"Beds_OR":0,"Beds_ORT":0,"Rehab_L":" ","Trauma_H":0,"Heli":"No","Weblink":"http://www.wsha.org/hospitalDetail.cfm?HID=15"},"geometry":{"type":"Point","coordinates":[-122.47255448593988,48.744036563853]}},{"type":"Feature","properties":{"OBJECTID":26,"NAME":"Confluence Health/Central Washington Hospital","LINK":6,"DOHLIC":168,"ADDRESS":"1201 South Miller Street","CITY":"Wenatchee","ZIP":"98807","ZIP4":"1887","PHONE":"(509) 662-1511","FAX":"(509) 662-6770","BED_ICU":12,"BED_NURSIN":30,"BED_CHEM":0,"BED_PSY":0,"BED_ACUTE":151,"BED_TOTAL":198,"BED_LIC":206,"BASSINETTE":13,"ACUTE":"Yes","ICU":"Yes","PSYCHEM":"No","CAH":"No","NEON":2,"TRAUMA_P":3,"TRAUMA_G":3,"OPEN_HEART":1,"COUNTY":"CHELAN CO.","SHORT_NAME":"Central","PSC":0,"REHAB":" ","Cardiac":"Yes","HAI_Link":6,"VAP_Link":6,"Program":"Healthcare Acquired Infections","PCI":1,"Stroke_L":"II","Cardiac_L":"I","Stroke":"II","Funding":"Not For Profit","Dialysis":1,"Unique_id":27,"Ebola":" ","Trauma_D":"III","Beds_ER":24,"Beds_ERT":24,"Beds_OR":10,"Beds_ORT":10,"Rehab_L":" ","Trauma_H":1,"Heli":"Yes","Weblink":"http://www.wsha.org/hospitalDetail.cfm?HID=108"},"geometry":{"type":"Point","coordinates":[-120.32103051186388,47.40660464460838]}},{"type":"Feature","properties":{"OBJECTID":27,"NAME":"East Adams Rural Hospital","LINK":14,"DOHLIC":111,"ADDRESS":"903 Adams S","CITY":"Ritzville","ZIP":"99169","ZIP4":"2298","PHONE":"(509) 659-1200","FAX":"(509) 659-1252","BED_ICU":0,"BED_NURSIN":0,"BED_CHEM":0,"BED_PSY":0,"BED_ACUTE":20,"BED_TOTAL":20,"BED_LIC":20,"BASSINETTE":2,"ACUTE":"Yes","ICU":"No","PSYCHEM":"No","CAH":"Yes","NEON":4,"TRAUMA_P":0,"TRAUMA_G":5,"OPEN_HEART":0,"COUNTY":"ADAMS CO.","SHORT_NAME":"East Adams","PSC":0,"REHAB":" ","Cardiac":"No","HAI_Link":0,"VAP_Link":0,"Program":" ","PCI":0,"Stroke_L":"III","Cardiac_L":"II","Stroke":"III","Funding":"District","Dialysis":1,"Unique_id":28,"Ebola":" ","Trauma_D":"V","Beds_ER":5,"Beds_ERT":3,"Beds_OR":0,"Beds_ORT":0,"Rehab_L":" ","Trauma_H":1,"Heli":"Yes","Weblink":"http://www.wsha.org/hospitalDetail.cfm?HID=71"},"geometry":{"type":"Point","coordinates":[-118.37188655690527,47.12121882279936]}},{"type":"Feature","properties":{"OBJECTID":28,"NAME":"Trios Health","LINK":35,"DOHLIC":39,"ADDRESS":"900 Auburn St S","CITY":"Kennewick","ZIP":"99336","ZIP4":"5672","PHONE":"(509) 586-6111","FAX":"(509) 586-5894","BED_ICU":6,"BED_NURSIN":0,"BED_CHEM":0,"BED_PSY":0,"BED_ACUTE":64,"BED_TOTAL":71,"BED_LIC":101,"BASSINETTE":15,"ACUTE":"Yes","ICU":"Yes","PSYCHEM":"No","CAH":"No","NEON":1,"TRAUMA_P":3,"TRAUMA_G":3,"OPEN_HEART":2,"COUNTY":"BENTON CO.","SHORT_NAME":"Trios","PSC":0,"REHAB":" ","Cardiac":"No","HAI_Link":35,"VAP_Link":35,"Program":"Healthcare Acquired Infections","PCI":0,"Stroke_L":"II","Cardiac_L":"II","Stroke":"II","Funding":"District","Dialysis":1,"Unique_id":29,"Ebola":" ","Trauma_D":"III","Beds_ER":14,"Beds_ERT":2,"Beds_OR":6,"Beds_ORT":6,"Rehab_L":" ","Trauma_H":1,"Heli":"Yes","Weblink":"http://www.wsha.org/hospitalDetail.cfm?HID=42"},"geometry":{"type":"Point","coordinates":[-119.11921669145877,46.19924545468028]}},{"type":"Feature","properties":{"OBJECTID":29,"NAME":"Kittitas Valley Healthcare","LINK":37,"DOHLIC":140,"ADDRESS":"603 Chestnut St S","CITY":"Ellensburg","ZIP":"98926","ZIP4":"3897","PHONE":"(509) 962-9841","FAX":"(509) 962-7351","BED_ICU":6,"BED_NURSIN":0,"BED_CHEM":0,"BED_PSY":0,"BED_ACUTE":26,"BED_TOTAL":25,"BED_LIC":50,"BASSINETTE":10,"ACUTE":"Yes","ICU":"Yes","PSYCHEM":"No","CAH":"Yes","NEON":1,"TRAUMA_P":0,"TRAUMA_G":4,"OPEN_HEART":0,"COUNTY":"KITTITAS CO.","SHORT_NAME":"Kittitas Valley","PSC":0,"REHAB":" ","Cardiac":"No","HAI_Link":37,"VAP_Link":37,"Program":"Healthcare Acquired Infections","PCI":0,"Stroke_L":"II","Cardiac_L":"II","Stroke":"II","Funding":"District","Dialysis":1,"Unique_id":30,"Ebola":" ","Trauma_D":"IV","Beds_ER":9,"Beds_ERT":2,"Beds_OR":3,"Beds_ORT":3,"Rehab_L":" ","Trauma_H":1,"Heli":"Yes","Weblink":"http://www.wsha.org/hospitalDetail.cfm?HID=31"},"geometry":{"type":"Point","coordinates":[-120.53789633970531,46.98709397223561]}},{"type":"Feature","properties":{"OBJECTID":30,"NAME":"Klickitat Valley Health","LINK":38,"DOHLIC":8,"ADDRESS":"310 South Roosevelt","CITY":"Goldendale","ZIP":"98620","ZIP4":"0005","PHONE":"(509) 773-4022","FAX":"(509) 773-4714","BED_ICU":0,"BED_NURSIN":0,"BED_CHEM":0,"BED_PSY":0,"BED_ACUTE":15,"BED_TOTAL":17,"BED_LIC":31,"BASSINETTE":5,"ACUTE":"Yes","ICU":"No","PSYCHEM":"No","CAH":"Yes","NEON":1,"TRAUMA_P":0,"TRAUMA_G":4,"OPEN_HEART":0,"COUNTY":"KLICKITAT CO.","SHORT_NAME":"Klickitat Valley","PSC":0,"REHAB":" ","Cardiac":"No","HAI_Link":0,"VAP_Link":0,"Program":" ","PCI":0,"Stroke_L":"III","Cardiac_L":"II","Stroke":"U","Funding":"District","Dialysis":1,"Unique_id":31,"Ebola":" ","Trauma_D":"IV","Beds_ER":7,"Beds_ERT":2,"Beds_OR":1,"Beds_ORT":1,"Rehab_L":" ","Trauma_H":1,"Heli":"Yes","Weblink":"http://www.wsha.org/hospitalDetail.cfm?HID=39"},"geometry":{"type":"Point","coordinates":[-120.81110601103295,45.82018033063465]}},{"type":"Feature","properties":{"OBJECTID":31,"NAME":"Lourdes Medical Center","LINK":43,"DOHLIC":22,"ADDRESS":"520 4th Ave N","CITY":"Pasco","ZIP":"99301","ZIP4":"5257","PHONE":"(509) 547-7704","FAX":"(509) 546-2291","BED_ICU":2,"BED_NURSIN":17,"BED_CHEM":29,"BED_PSY":0,"BED_ACUTE":95,"BED_TOTAL":25,"BED_LIC":132,"BASSINETTE":12,"ACUTE":"Yes","ICU":"Yes","PSYCHEM":"Yes","CAH":"Yes","NEON":1,"TRAUMA_P":0,"TRAUMA_G":4,"OPEN_HEART":0,"COUNTY":"FRANKLIN CO.","SHORT_NAME":"Lourdes","PSC":0,"REHAB":"IIR","Cardiac":"No","HAI_Link":43,"VAP_Link":43,"Program":"Healthcare Acquired Infections","PCI":0,"Stroke_L":"III","Cardiac_L":"II","Stroke":"III","Funding":"Not For Profit","Dialysis":1,"Unique_id":32,"Ebola":" ","Trauma_D":"IV","Beds_ER":12,"Beds_ERT":3,"Beds_OR":8,"Beds_ORT":8,"Rehab_L":"II","Trauma_H":1,"Heli":"Yes","Weblink":"http://www.wsha.org/hospitalDetail.cfm?HID=58"},"geometry":{"type":"Point","coordinates":[-119.09538615961687,46.23502559391208]}},{"type":"Feature","properties":{"OBJECTID":32,"NAME":"Pullman Regional Hospital","LINK":72,"DOHLIC":172,"ADDRESS":"1125 Washington Ave NE","CITY":"Pullman","ZIP":"99163","ZIP4":"4742","PHONE":"(509) 332-2541","FAX":"(509) 332-4242","BED_ICU":2,"BED_NURSIN":0,"BED_CHEM":0,"BED_PSY":0,"BED_ACUTE":42,"BED_TOTAL":25,"BED_LIC":42,"BASSINETTE":8,"ACUTE":"Yes","ICU":"Yes","PSYCHEM":"No","CAH":"Yes","NEON":1,"TRAUMA_P":0,"TRAUMA_G":4,"OPEN_HEART":0,"COUNTY":"WHITMAN CO.","SHORT_NAME":"Pullman","PSC":0,"REHAB":" ","Cardiac":"No","HAI_Link":72,"VAP_Link":72,"Program":"Healthcare Acquired Infections","PCI":0,"Stroke_L":"III","Cardiac_L":"II","Stroke":"III","Funding":"District","Dialysis":1,"Unique_id":33,"Ebola":" ","Trauma_D":"IV","Beds_ER":8,"Beds_ERT":3,"Beds_OR":3,"Beds_ORT":3,"Rehab_L":" ","Trauma_H":1,"Heli":"Yes","Weblink":"http://www.wsha.org/hospitalDetail.cfm?HID=64"},"geometry":{"type":"Point","coordinates":[-117.16619156795628,46.72744070525744]}},{"type":"Feature","properties":{"OBJECTID":33,"NAME":"Providence St. Mary Medical Center","LINK":83,"DOHLIC":50,"ADDRESS":"401 Poplar St W","CITY":"Walla Walla","ZIP":"99362","ZIP4":"2846","PHONE":"(509) 525-3320","FAX":"(509) 522-5950","BED_ICU":8,"BED_NURSIN":14,"BED_CHEM":8,"BED_PSY":0,"BED_ACUTE":142,"BED_TOTAL":87,"BED_LIC":142,"BASSINETTE":21,"ACUTE":"Yes","ICU":"Yes","PSYCHEM":"No","CAH":"No","NEON":2,"TRAUMA_P":3,"TRAUMA_G":3,"OPEN_HEART":2,"COUNTY":"WALLA WALLA CO.","SHORT_NAME":"St. Mary","PSC":0,"REHAB":"IIR","Cardiac":"No","HAI_Link":83,"VAP_Link":83,"Program":"Healthcare Acquired Infections","PCI":0,"Stroke_L":"II","Cardiac_L":"II","Stroke":"II","Funding":"Not For Profit","Dialysis":1,"Unique_id":34,"Ebola":"Assessment","Trauma_D":"III A & P","Beds_ER":15,"Beds_ERT":3,"Beds_OR":5,"Beds_ORT":5,"Rehab_L":"II","Trauma_H":1,"Heli":"Yes","Weblink":"http://www.wsha.org/hospitalDetail.cfm?HID=106"},"geometry":{"type":"Point","coordinates":[-118.3431969760516,46.062227652030295]}},{"type":"Feature","properties":{"OBJECTID":34,"NAME":"Deaconess Hospital/Rockwood Health System","LINK":12,"DOHLIC":60054542,"ADDRESS":"800 West Fifth Avenue","CITY":"Spokane","ZIP":"99210","ZIP4":" ","PHONE":"(509) 458-5800","FAX":"(509) 458-7306","BED_ICU":16,"BED_NURSIN":0,"BED_CHEM":11,"BED_PSY":0,"BED_ACUTE":178,"BED_TOTAL":307,"BED_LIC":388,"BASSINETTE":33,"ACUTE":"Yes","ICU":"Yes","PSYCHEM":"Yes","CAH":"No","NEON":3,"TRAUMA_P":0,"TRAUMA_G":0,"OPEN_HEART":1,"COUNTY":"SPOKANE CO.","SHORT_NAME":"Deaconess","PSC":0,"REHAB":" ","Cardiac":"Yes","HAI_Link":12,"VAP_Link":12,"Program":"Healthcare Acquired Infections","PCI":1,"Stroke_L":"II","Cardiac_L":"I","Stroke":"II","Funding":"Proprietary","Dialysis":1,"Unique_id":35,"Ebola":" ","Trauma_D":"III","Beds_ER":24,"Beds_ERT":3,"Beds_OR":18,"Beds_ORT":12,"Rehab_L":" ","Trauma_H":1,"Heli":"Yes","Weblink":"http://www.wsha.org/hospitalDetail.cfm?HID=85"},"geometry":{"type":"Point","coordinates":[-117.42335283217618,47.65195728362865]}},{"type":"Feature","properties":{"OBJECTID":35,"NAME":"Providence Sacred Heart Medical Center & Children's Hospital","LINK":75,"DOHLIC":162,"ADDRESS":"101 8th Ave W","CITY":"Spokane","ZIP":"99220","ZIP4":"4045","PHONE":"(509) 474-3131","FAX":"(509) 455-4856","BED_ICU":24,"BED_NURSIN":0,"BED_CHEM":0,"BED_PSY":72,"BED_ACUTE":535,"BED_TOTAL":644,"BED_LIC":623,"BASSINETTE":18,"ACUTE":"Yes","ICU":"Yes","PSYCHEM":"Yes","CAH":"No","NEON":3,"TRAUMA_P":2,"TRAUMA_G":2,"OPEN_HEART":1,"COUNTY":"SPOKANE CO.","SHORT_NAME":"Sacred Heart","PSC":3,"REHAB":" ","Cardiac":"Yes","HAI_Link":75,"VAP_Link":75,"Program":"Healthcare Acquired Infections","PCI":1,"Stroke_L":"I","Cardiac_L":"I","Stroke":"I","Funding":"Not For Profit","Dialysis":1,"Unique_id":36,"Ebola":"Treatment","Trauma_D":"II A & P","Beds_ER":31,"Beds_ERT":3,"Beds_OR":28,"Beds_ORT":2,"Rehab_L":" ","Trauma_H":1,"Heli":"Yes","Weblink":"http://www.wsha.org/hospitalDetail.cfm?HID=92"},"geometry":{"type":"Point","coordinates":[-117.41303682278405,47.648905028482616]}},{"type":"Feature","properties":{"OBJECTID":36,"NAME":"Shriners Hospital for Children","LINK":87,"DOHLIC":42,"ADDRESS":"911 Fifth Avenue W.","CITY":"Spokane","ZIP":"99204","ZIP4":"7844","PHONE":"(509) 455-7844","FAX":" ","BED_ICU":0,"BED_NURSIN":0,"BED_CHEM":0,"BED_PSY":0,"BED_ACUTE":30,"BED_TOTAL":30,"BED_LIC":0,"BASSINETTE":0,"ACUTE":"Yes","ICU":"No","PSYCHEM":"No","CAH":"No","NEON":4,"TRAUMA_P":0,"TRAUMA_G":0,"OPEN_HEART":0,"COUNTY":"SPOKANE CO.","SHORT_NAME":"Shriners","PSC":0,"REHAB":" ","Cardiac":"No","HAI_Link":0,"VAP_Link":0,"Program":" ","PCI":0,"Stroke_L":" ","Cardiac_L":" ","Stroke":" ","Funding":"Not For Profit","Dialysis":1,"Unique_id":37,"Ebola":" ","Trauma_D":" ","Beds_ER":0,"Beds_ERT":0,"Beds_OR":0,"Beds_ORT":0,"Rehab_L":" ","Trauma_H":0,"Heli":"No","Weblink":"http://www.wsha.org/hospitalDetail.cfm?HID=146"},"geometry":{"type":"Point","coordinates":[-117.42567115680585,47.6509024106302]}},{"type":"Feature","properties":{"OBJECTID":37,"NAME":"PeaceHealth Southwest Medical Center","LINK":91,"DOHLIC":170,"ADDRESS":"400 NE Mother Joseph Place","CITY":"Vancouver","ZIP":"98668","ZIP4":"1600","PHONE":"(360) 256-2000","FAX":"(360) 256-2006","BED_ICU":16,"BED_NURSIN":0,"BED_CHEM":0,"BED_PSY":0,"BED_ACUTE":285,"BED_TOTAL":450,"BED_LIC":360,"BASSINETTE":60,"ACUTE":"Yes","ICU":"Yes","PSYCHEM":"No","CAH":"No","NEON":3,"TRAUMA_P":0,"TRAUMA_G":2,"OPEN_HEART":1,"COUNTY":"CLARK CO.","SHORT_NAME":"Southwest","PSC":3,"REHAB":"IIR","Cardiac":"Yes","HAI_Link":91,"VAP_Link":91,"Program":"Healthcare Acquired Infections","PCI":1,"Stroke_L":"I","Cardiac_L":"I","Stroke":"I","Funding":"Not For Profit","Dialysis":1,"Unique_id":38,"Ebola":" ","Trauma_D":"II","Beds_ER":52,"Beds_ERT":5,"Beds_OR":18,"Beds_ORT":13,"Rehab_L":"I","Trauma_H":1,"Heli":"Yes","Weblink":"http://www.wsha.org/hospitalDetail.cfm?HID=105"},"geometry":{"type":"Point","coordinates":[-122.58072695980174,45.624437506032436]}},{"type":"Feature","properties":{"OBJECTID":38,"NAME":"Swedish Medical Center - First Hill Campus","LINK":96,"DOHLIC":1,"ADDRESS":"747 Broadway","CITY":"Seattle","ZIP":"98114","ZIP4":"0999","PHONE":"(206) 386-6000","FAX":"(206) 386-2277","BED_ICU":93,"BED_NURSIN":0,"BED_CHEM":0,"BED_PSY":0,"BED_ACUTE":637,"BED_TOTAL":312,"BED_LIC":860,"BASSINETTE":175,"ACUTE":"Yes","ICU":"Yes","PSYCHEM":"No","CAH":"No","NEON":3,"TRAUMA_P":0,"TRAUMA_G":0,"OPEN_HEART":1,"COUNTY":"KING CO.","SHORT_NAME":"Swedish","PSC":3,"REHAB":" ","Cardiac":"Yes","HAI_Link":96,"VAP_Link":96,"Program":"Healthcare Acquired Infections","PCI":1,"Stroke_L":"II","Cardiac_L":"II","Stroke":"II","Funding":"Not For Profit","Dialysis":1,"Unique_id":39,"Ebola":" ","Trauma_D":" ","Beds_ER":0,"Beds_ERT":0,"Beds_OR":0,"Beds_ORT":0,"Rehab_L":" ","Trauma_H":0,"Heli":"No","Weblink":"http://www.wsha.org/hospitalDetail.cfm?HID=77"},"geometry":{"type":"Point","coordinates":[-122.32162108805696,47.60866126614796]}},{"type":"Feature","properties":{"OBJECTID":39,"NAME":"Valley Hospital/Rockwood Health System","LINK":104,"DOHLIC":60054580,"ADDRESS":"12606 Mission Ave E","CITY":"Spokane","ZIP":"99216","ZIP4":"1090","PHONE":"(509) 924-6650","FAX":"(509) 458-7306","BED_ICU":10,"BED_NURSIN":0,"BED_CHEM":0,"BED_PSY":0,"BED_ACUTE":66,"BED_TOTAL":123,"BED_LIC":123,"BASSINETTE":11,"ACUTE":"Yes","ICU":"Yes","PSYCHEM":"No","CAH":"No","NEON":1,"TRAUMA_P":0,"TRAUMA_G":3,"OPEN_HEART":0,"COUNTY":"SPOKANE CO.","SHORT_NAME":"Valley","PSC":0,"REHAB":" ","Cardiac":"No","HAI_Link":104,"VAP_Link":104,"Program":"Healthcare Acquired Infections","PCI":0,"Stroke_L":"III","Cardiac_L":"II","Stroke":"III","Funding":"Proprietary","Dialysis":1,"Unique_id":40,"Ebola":" ","Trauma_D":"III","Beds_ER":21,"Beds_ERT":2,"Beds_OR":6,"Beds_ORT":0,"Rehab_L":" ","Trauma_H":1,"Heli":"Yes","Weblink":"http://www.wsha.org/hospitalDetail.cfm?HID=94"},"geometry":{"type":"Point","coordinates":[-117.23547093053362,47.670764315364465]}},{"type":"Feature","properties":{"OBJECTID":40,"NAME":"Daybreak of Spokane","LINK":10,"DOHLIC":0,"ADDRESS":"628 South Cowley","CITY":"Spokane","ZIP":"99202","ZIP4":" ","PHONE":"(509) 624-3227","FAX":" ","BED_ICU":0,"BED_NURSIN":0,"BED_CHEM":34,"BED_PSY":0,"BED_ACUTE":0,"BED_TOTAL":34,"BED_LIC":0,"BASSINETTE":0,"ACUTE":"No","ICU":"No","PSYCHEM":"Yes","CAH":"No","NEON":0,"TRAUMA_P":0,"TRAUMA_G":0,"OPEN_HEART":0,"COUNTY":"SPOKANE CO.","SHORT_NAME":"Daybreak","PSC":0,"REHAB":" ","Cardiac":" ","HAI_Link":0,"VAP_Link":0,"Program":" ","PCI":0,"Stroke_L":" ","Cardiac_L":" ","Stroke":" ","Funding":"Proprietary","Dialysis":0,"Unique_id":42,"Ebola":" ","Trauma_D":" ","Beds_ER":0,"Beds_ERT":0,"Beds_OR":0,"Beds_ORT":0,"Rehab_L":" ","Trauma_H":0,"Heli":"No","Weblink":"http://daybreakinfo.org/contact/"},"geometry":{"type":"Point","coordinates":[-117.40856125828505,47.650243059724616]}},{"type":"Feature","properties":{"OBJECTID":41,"NAME":"Veterans Affairs Medical Center","LINK":106,"DOHLIC":0,"ADDRESS":"N. 4815 Assembly St.","CITY":"Spokane","ZIP":"99205","ZIP4":"6197","PHONE":"(509) 328 4521","FAX":"(509) 327-0222","BED_ICU":0,"BED_NURSIN":0,"BED_CHEM":0,"BED_PSY":0,"BED_ACUTE":132,"BED_TOTAL":132,"BED_LIC":0,"BASSINETTE":0,"ACUTE":"No","ICU":"No","PSYCHEM":"No","CAH":"No","NEON":0,"TRAUMA_P":0,"TRAUMA_G":0,"OPEN_HEART":0,"COUNTY":"SPOKANE CO.","SHORT_NAME":"VA","PSC":0,"REHAB":" ","Cardiac":" ","HAI_Link":0,"VAP_Link":0,"Program":" ","PCI":0,"Stroke_L":" ","Cardiac_L":" ","Stroke":" ","Funding":"Military","Dialysis":1,"Unique_id":43,"Ebola":" ","Trauma_D":" ","Beds_ER":0,"Beds_ERT":0,"Beds_OR":0,"Beds_ORT":0,"Rehab_L":" ","Trauma_H":0,"Heli":"No","Weblink":"http://www.spokane.va.gov/"},"geometry":{"type":"Point","coordinates":[-117.47769595631576,47.70247291816989]}},{"type":"Feature","properties":{"OBJECTID":42,"NAME":"St. Luke's Rehabilitation Institute","LINK":82,"DOHLIC":157,"ADDRESS":"711 Cowley St S","CITY":"Spokane","ZIP":"99202","ZIP4":"1330","PHONE":"(509) 838-4771","FAX":"(509) 473-6097","BED_ICU":0,"BED_NURSIN":0,"BED_CHEM":0,"BED_PSY":0,"BED_ACUTE":72,"BED_TOTAL":102,"BED_LIC":102,"BASSINETTE":0,"ACUTE":"Yes","ICU":"No","PSYCHEM":"No","CAH":"No","NEON":4,"TRAUMA_P":0,"TRAUMA_G":0,"OPEN_HEART":0,"COUNTY":"SPOKANE CO.","SHORT_NAME":"Saint Luke's","PSC":0,"REHAB":"IR","Cardiac":"No","HAI_Link":0,"VAP_Link":0,"Program":" ","PCI":0,"Stroke_L":" ","Cardiac_L":" ","Stroke":" ","Funding":"Not For Profit","Dialysis":1,"Unique_id":44,"Ebola":" ","Trauma_D":" ","Beds_ER":0,"Beds_ERT":0,"Beds_OR":0,"Beds_ORT":0,"Rehab_L":"I & IP","Trauma_H":1,"Heli":"No","Weblink":"http://www.wsha.org/hospitalDetail.cfm?HID=145"},"geometry":{"type":"Point","coordinates":[-117.40908493553822,47.64900739598622]}},{"type":"Feature","properties":{"OBJECTID":43,"NAME":"Multicare Auburn Regional Medical Center","LINK":1,"DOHLIC":60311052,"ADDRESS":"202 North Division St","CITY":"Auburn","ZIP":"98002","ZIP4":"4932","PHONE":"(253) 833-7711","FAX":"(253) 939-2376","BED_ICU":9,"BED_NURSIN":0,"BED_CHEM":0,"BED_PSY":20,"BED_ACUTE":113,"BED_TOTAL":162,"BED_LIC":149,"BASSINETTE":12,"ACUTE":"Yes","ICU":"Yes","PSYCHEM":"Yes","CAH":"No","NEON":2,"TRAUMA_P":0,"TRAUMA_G":3,"OPEN_HEART":0,"COUNTY":"KING CO.","SHORT_NAME":"Auburn","PSC":2,"REHAB":" ","Cardiac":"Yes","HAI_Link":1,"VAP_Link":0,"Program":"Healthcare Acquired Infections","PCI":1,"Stroke_L":"II","Cardiac_L":"I","Stroke":"II","Funding":"Proprietary","Dialysis":1,"Unique_id":45,"Ebola":" ","Trauma_D":"III","Beds_ER":24,"Beds_ERT":4,"Beds_OR":7,"Beds_ORT":6,"Rehab_L":" ","Trauma_H":1,"Heli":"Yes","Weblink":"http://www.wsha.org/hospitalDetail.cfm?HID=13"},"geometry":{"type":"Point","coordinates":[-122.229035740268,47.30891354789476]}},{"type":"Feature","properties":{"OBJECTID":44,"NAME":"Seattle Children's","LINK":7,"DOHLIC":14,"ADDRESS":"4800 Sandpoint Way NE","CITY":"Seattle","ZIP":"98105","ZIP4":"0317","PHONE":"(206) 526-2000","FAX":"(206) 526-3830","BED_ICU":0,"BED_NURSIN":0,"BED_CHEM":0,"BED_PSY":15,"BED_ACUTE":157,"BED_TOTAL":323,"BED_LIC":208,"BASSINETTE":0,"ACUTE":"Yes","ICU":"Yes","PSYCHEM":"Yes","CAH":"No","NEON":3,"TRAUMA_P":0,"TRAUMA_G":0,"OPEN_HEART":1,"COUNTY":"KING CO.","SHORT_NAME":"Childrens","PSC":0,"REHAB":"IPR","Cardiac":"No","HAI_Link":7,"VAP_Link":7,"Program":"Healthcare Acquired Infections","PCI":0,"Stroke_L":" ","Cardiac_L":" ","Stroke":" ","Funding":"Proprietary","Dialysis":1,"Unique_id":46,"Ebola":"Treatment","Trauma_D":" ","Beds_ER":0,"Beds_ERT":0,"Beds_OR":0,"Beds_ORT":0,"Rehab_L":"I P","Trauma_H":1,"Heli":"No","Weblink":"http://www.wsha.org/hospitalDetail.cfm?HID=72"},"geometry":{"type":"Point","coordinates":[-122.2820829907515,47.66256824223886]}},{"type":"Feature","properties":{"OBJECTID":45,"NAME":"Toppenish Community Hospital","LINK":69,"DOHLIC":199,"ADDRESS":"502 4th Ave W","CITY":"Toppenish","ZIP":"98948","ZIP4":"0672","PHONE":"(509) 865-3105","FAX":"(509) 865-1519","BED_ICU":7,"BED_NURSIN":0,"BED_CHEM":0,"BED_PSY":0,"BED_ACUTE":41,"BED_TOTAL":63,"BED_LIC":63,"BASSINETTE":14,"ACUTE":"Yes","ICU":"Yes","PSYCHEM":"No","CAH":"No","NEON":1,"TRAUMA_P":0,"TRAUMA_G":4,"OPEN_HEART":0,"COUNTY":"YAKIMA CO.","SHORT_NAME":"Toppenish","PSC":0,"REHAB":" ","Cardiac":"No","HAI_Link":69,"VAP_Link":69,"Program":"Healthcare Acquired Infections","PCI":0,"Stroke_L":"II","Cardiac_L":"II","Stroke":"II","Funding":"Proprietary","Dialysis":1,"Unique_id":47,"Ebola":" ","Trauma_D":"IV","Beds_ER":11,"Beds_ERT":3,"Beds_OR":2,"Beds_ORT":2,"Rehab_L":" ","Trauma_H":1,"Heli":"Yes","Weblink":"http://www.wsha.org/hospitalDetail.cfm?HID=104"},"geometry":{"type":"Point","coordinates":[-120.31705751158043,46.370844844867406]}},{"type":"Feature","properties":{"OBJECTID":46,"NAME":"Yakima Regional Medical and Cardiac Center","LINK":70,"DOHLIC":102,"ADDRESS":"110 9th Ave S","CITY":"Yakima","ZIP":"98902","ZIP4":"3315","PHONE":"(509) 575-5000","FAX":"(509) 454-6376","BED_ICU":13,"BED_NURSIN":12,"BED_CHEM":0,"BED_PSY":0,"BED_ACUTE":141,"BED_TOTAL":150,"BED_LIC":214,"BASSINETTE":14,"ACUTE":"Yes","ICU":"Yes","PSYCHEM":"No","CAH":"No","NEON":4,"TRAUMA_P":0,"TRAUMA_G":3,"OPEN_HEART":1,"COUNTY":"YAKIMA CO.","SHORT_NAME":"Yakima","PSC":0,"REHAB":" ","Cardiac":"Yes","HAI_Link":70,"VAP_Link":70,"Program":"Healthcare Acquired Infections","PCI":1,"Stroke_L":"II","Cardiac_L":"I","Stroke":"II","Funding":"Proprietary","Dialysis":1,"Unique_id":48,"Ebola":" ","Trauma_D":"III","Beds_ER":21,"Beds_ERT":2,"Beds_OR":13,"Beds_ORT":13,"Rehab_L":"II","Trauma_H":1,"Heli":"Yes","Weblink":"http://www.wsha.org/hospitalDetail.cfm?HID=110"},"geometry":{"type":"Point","coordinates":[-120.52102685705034,46.596931799788486]}},{"type":"Feature","properties":{"OBJECTID":47,"NAME":"UW Medicine/University Of Washington Medical Center","LINK":102,"DOHLIC":128,"ADDRESS":"1959 Pacific St NE","CITY":"Seattle","ZIP":"98195","ZIP4":"6028","PHONE":"(206) 548-6486","FAX":"(206) 543-4365","BED_ICU":78,"BED_NURSIN":0,"BED_CHEM":0,"BED_PSY":20,"BED_ACUTE":337,"BED_TOTAL":450,"BED_LIC":450,"BASSINETTE":36,"ACUTE":"Yes","ICU":"Yes","PSYCHEM":"Yes","CAH":"No","NEON":3,"TRAUMA_P":0,"TRAUMA_G":0,"OPEN_HEART":1,"COUNTY":"KING CO.","SHORT_NAME":"UW","PSC":0,"REHAB":" ","Cardiac":"Yes","HAI_Link":102,"VAP_Link":102,"Program":"Healthcare Acquired Infections","PCI":1,"Stroke_L":"III","Cardiac_L":"I","Stroke":"III","Funding":"State","Dialysis":1,"Unique_id":49,"Ebola":"Assessment","Trauma_D":" ","Beds_ER":0,"Beds_ERT":0,"Beds_OR":0,"Beds_ORT":0,"Rehab_L":" ","Trauma_H":0,"Heli":"No","Weblink":"http://www.wsha.org/hospitalDetail.cfm?HID=80"},"geometry":{"type":"Point","coordinates":[-122.30926063119917,47.65085813378573]}},{"type":"Feature","properties":{"OBJECTID":48,"NAME":"Lakeside Milam Recovery Center","LINK":40,"DOHLIC":0,"ADDRESS":"10322 132nd NE","CITY":"Kirkland","ZIP":"98034","ZIP4":"2898","PHONE":"(425) 821-1122","FAX":" ","BED_ICU":0,"BED_NURSIN":0,"BED_CHEM":25,"BED_PSY":0,"BED_ACUTE":0,"BED_TOTAL":25,"BED_LIC":0,"BASSINETTE":0,"ACUTE":"No","ICU":"No","PSYCHEM":"Yes","CAH":"No","NEON":0,"TRAUMA_P":0,"TRAUMA_G":0,"OPEN_HEART":0,"COUNTY":"KING CO.","SHORT_NAME":"Lakeside Milam","PSC":0,"REHAB":" ","Cardiac":" ","HAI_Link":0,"VAP_Link":0,"Program":" ","PCI":0,"Stroke_L":" ","Cardiac_L":" ","Stroke":" ","Funding":"Proprietary","Dialysis":0,"Unique_id":51,"Ebola":" ","Trauma_D":" ","Beds_ER":0,"Beds_ERT":0,"Beds_OR":0,"Beds_ORT":0,"Rehab_L":" ","Trauma_H":0,"Heli":"No","Weblink":"http://www.lakesidemilam.com/locations-directions/"},"geometry":{"type":"Point","coordinates":[-122.20213963651844,47.71938723494196]}},{"type":"Feature","properties":{"OBJECTID":49,"NAME":"Cascade Valley Hospital","LINK":5,"DOHLIC":106,"ADDRESS":"330 Stillaguamish Ave S","CITY":"Arlington","ZIP":"98223","ZIP4":"1641","PHONE":"(360) 435-2133","FAX":"(360) 435-0513","BED_ICU":6,"BED_NURSIN":0,"BED_CHEM":0,"BED_PSY":0,"BED_ACUTE":39,"BED_TOTAL":48,"BED_LIC":48,"BASSINETTE":5,"ACUTE":"Yes","ICU":"Yes","PSYCHEM":"No","CAH":"No","NEON":1,"TRAUMA_P":0,"TRAUMA_G":4,"OPEN_HEART":0,"COUNTY":"SNOHOMISH CO.","SHORT_NAME":"Cascade Valley","PSC":0,"REHAB":" ","Cardiac":"No","HAI_Link":5,"VAP_Link":5,"Program":"Healthcare Acquired Infections","PCI":0,"Stroke_L":"III","Cardiac_L":"II","Stroke":"III","Funding":"District","Dialysis":1,"Unique_id":53,"Ebola":" ","Trauma_D":"IV","Beds_ER":16,"Beds_ERT":2,"Beds_OR":3,"Beds_ORT":1,"Rehab_L":" ","Trauma_H":1,"Heli":"Yes","Weblink":"http://www.wsha.org/hospitalDetail.cfm?HID=12"},"geometry":{"type":"Point","coordinates":[-122.11894584035566,48.188919549554015]}},{"type":"Feature","properties":{"OBJECTID":50,"NAME":"Providence Regional Medical Center Everett","LINK":66,"DOHLIC":84,"ADDRESS":"1700 13th Street","CITY":"Everett","ZIP":"98201","ZIP4":" ","PHONE":"(425) 261-2000","FAX":" ","BED_ICU":48,"BED_NURSIN":0,"BED_CHEM":14,"BED_PSY":0,"BED_ACUTE":194,"BED_TOTAL":491,"BED_LIC":362,"BASSINETTE":44,"ACUTE":"Yes","ICU":"Yes","PSYCHEM":"No","CAH":"No","NEON":3,"TRAUMA_P":3,"TRAUMA_G":3,"OPEN_HEART":1,"COUNTY":"SNOHOMISH CO.","SHORT_NAME":"Everett","PSC":3,"REHAB":"IIR","Cardiac":"Yes","HAI_Link":66,"VAP_Link":66,"Program":"Healthcare Acquired Infections","PCI":1,"Stroke_L":"II","Cardiac_L":"I","Stroke":"II","Funding":"Not For Profit","Dialysis":1,"Unique_id":52,"Ebola":"Assessment","Trauma_D":"II","Beds_ER":79,"Beds_ERT":4,"Beds_OR":11,"Beds_ORT":11,"Rehab_L":"II","Trauma_H":1,"Heli":"Yes","Weblink":"http://www.wsha.org/hospitalDetail.cfm?HID=34"},"geometry":{"type":"Point","coordinates":[-122.20570946097638,47.99989375137669]}},{"type":"Feature","properties":{"OBJECTID":51,"NAME":"Evergreen Health","LINK":17,"DOHLIC":164,"ADDRESS":"12040 128th St NE","CITY":"Kirkland","ZIP":"98033","ZIP4":"3098","PHONE":"(425) 899-1000","FAX":"(425) 899-2624","BED_ICU":14,"BED_NURSIN":17,"BED_CHEM":0,"BED_PSY":0,"BED_ACUTE":227,"BED_TOTAL":275,"BED_LIC":166,"BASSINETTE":36,"ACUTE":"Yes","ICU":"Yes","PSYCHEM":"No","CAH":"No","NEON":3,"TRAUMA_P":0,"TRAUMA_G":4,"OPEN_HEART":2,"COUNTY":"KING CO.","SHORT_NAME":"Evergreen","PSC":2,"REHAB":" ","Cardiac":"Yes","HAI_Link":17,"VAP_Link":17,"Program":"Healthcare Acquired Infections","PCI":1,"Stroke_L":"II","Cardiac_L":"I","Stroke":"II","Funding":"District","Dialysis":1,"Unique_id":55,"Ebola":"Assessment","Trauma_D":"III","Beds_ER":31,"Beds_ERT":4,"Beds_OR":19,"Beds_ORT":8,"Rehab_L":" ","Trauma_H":1,"Heli":"Yes","Weblink":"http://www.wsha.org/hospitalDetail.cfm?HID=44"},"geometry":{"type":"Point","coordinates":[-122.17840116585941,47.71589108442408]}},{"type":"Feature","properties":{"OBJECTID":52,"NAME":"Ferry County Memorial Hospital","LINK":18,"DOHLIC":167,"ADDRESS":"36 North Klondike Road","CITY":"Republic","ZIP":"99166","ZIP4":"0365","PHONE":"(509) 775-3333","FAX":"(509) 775-3866","BED_ICU":2,"BED_NURSIN":14,"BED_CHEM":0,"BED_PSY":0,"BED_ACUTE":9,"BED_TOTAL":25,"BED_LIC":25,"BASSINETTE":4,"ACUTE":"Yes","ICU":"Yes","PSYCHEM":"No","CAH":"Yes","NEON":1,"TRAUMA_P":0,"TRAUMA_G":5,"OPEN_HEART":0,"COUNTY":"FERRY CO.","SHORT_NAME":"Ferry County Memorial","PSC":0,"REHAB":" ","Cardiac":"No","HAI_Link":0,"VAP_Link":0,"Program":" ","PCI":0,"Stroke_L":"III","Cardiac_L":"II","Stroke":"III","Funding":"District","Dialysis":1,"Unique_id":56,"Ebola":" ","Trauma_D":"V","Beds_ER":3,"Beds_ERT":2,"Beds_OR":0,"Beds_ORT":0,"Rehab_L":" ","Trauma_H":1,"Heli":"Yes","Weblink":"http://www.wsha.org/hospitalDetail.cfm?HID=69"},"geometry":{"type":"Point","coordinates":[-118.73140091298896,48.65304137349853]}},{"type":"Feature","properties":{"OBJECTID":53,"NAME":"UW Medicine/Valley Medical Center","LINK":105,"DOHLIC":155,"ADDRESS":"400 43rd St S","CITY":"Renton","ZIP":"98055","ZIP4":"5784","PHONE":"(425) 228-3450","FAX":"(425) 656-4202","BED_ICU":12,"BED_NURSIN":25,"BED_CHEM":0,"BED_PSY":20,"BED_ACUTE":303,"BED_TOTAL":269,"BED_LIC":342,"BASSINETTE":37,"ACUTE":"Yes","ICU":"Yes","PSYCHEM":"Yes","CAH":"No","NEON":3,"TRAUMA_P":0,"TRAUMA_G":3,"OPEN_HEART":0,"COUNTY":"KING CO.","SHORT_NAME":"UW/Valley","PSC":3,"REHAB":" ","Cardiac":"Yes","HAI_Link":105,"VAP_Link":105,"Program":"Healthcare Acquired Infections","PCI":1,"Stroke_L":"II","Cardiac_L":"I","Stroke":"II","Funding":"District","Dialysis":1,"Unique_id":58,"Ebola":" ","Trauma_D":"III","Beds_ER":56,"Beds_ERT":54,"Beds_OR":17,"Beds_ORT":1,"Rehab_L":" ","Trauma_H":1,"Heli":"Yes","Weblink":"http://www.wsha.org/hospitalDetail.cfm?HID=68"},"geometry":{"type":"Point","coordinates":[-122.2139653430344,47.44277804488129]}},{"type":"Feature","properties":{"OBJECTID":54,"NAME":"NAVOS Psychiatric Hospital","LINK":113,"DOHLIC":0,"ADDRESS":"2600 SW Holden","CITY":"Seattle","ZIP":"98168","ZIP4":" ","PHONE":"(206) 933-7000","FAX":"(206) 933-7218","BED_ICU":0,"BED_NURSIN":0,"BED_CHEM":0,"BED_PSY":40,"BED_ACUTE":0,"BED_TOTAL":28,"BED_LIC":40,"BASSINETTE":0,"ACUTE":"No","ICU":"No","PSYCHEM":"Yes","CAH":"No","NEON":0,"TRAUMA_P":0,"TRAUMA_G":0,"OPEN_HEART":0,"COUNTY":"KING CO.","SHORT_NAME":"West Seattle Psychiatric","PSC":0,"REHAB":" ","Cardiac":" ","HAI_Link":0,"VAP_Link":0,"Program":" ","PCI":0,"Stroke_L":" ","Cardiac_L":" ","Stroke":" ","Funding":"Not For Profit","Dialysis":0,"Unique_id":59,"Ebola":" ","Trauma_D":" ","Beds_ER":0,"Beds_ERT":0,"Beds_OR":0,"Beds_ORT":0,"Rehab_L":" ","Trauma_H":0,"Heli":"No","Weblink":"http://www.wsha.org/hospitalDetail.cfm?HID=143"},"geometry":{"type":"Point","coordinates":[-122.36660917920364,47.53472482225227]}},{"type":"Feature","properties":{"OBJECTID":55,"NAME":"Swedish/ Edmonds","LINK":93,"DOHLIC":138,"ADDRESS":"21601 76th Ave W","CITY":"Edmonds","ZIP":"98020","ZIP4":"3702","PHONE":"(425) 640-4000","FAX":"(425) 640-4010","BED_ICU":9,"BED_NURSIN":0,"BED_CHEM":0,"BED_PSY":25,"BED_ACUTE":158,"BED_TOTAL":156,"BED_LIC":217,"BASSINETTE":18,"ACUTE":"Yes","ICU":"Yes","PSYCHEM":"Yes","CAH":"No","NEON":2,"TRAUMA_P":0,"TRAUMA_G":4,"OPEN_HEART":0,"COUNTY":"SNOHOMISH CO.","SHORT_NAME":"Swedish","PSC":0,"REHAB":" ","Cardiac":"Yes","HAI_Link":93,"VAP_Link":93,"Program":"Healthcare Acquired Infections","PCI":1,"Stroke_L":"II","Cardiac_L":"I","Stroke":"II","Funding":"Not For Profit","Dialysis":1,"Unique_id":60,"Ebola":" ","Trauma_D":"IV","Beds_ER":28,"Beds_ERT":2,"Beds_OR":4,"Beds_ORT":4,"Rehab_L":" ","Trauma_H":1,"Heli":"Yes","Weblink":"http://www.wsha.org/hospitalDetail.cfm?HID=30"},"geometry":{"type":"Point","coordinates":[-122.33435704425001,47.80321628176992]}},{"type":"Feature","properties":{"OBJECTID":56,"NAME":"Western State Hospital","LINK":114,"DOHLIC":0,"ADDRESS":"9601 Steilacoom Boulevard Sw","CITY":"Fort Steilacoom","ZIP":"98494","ZIP4":"0500","PHONE":"(253) 756-2525","FAX":" ","BED_ICU":0,"BED_NURSIN":0,"BED_CHEM":0,"BED_PSY":1035,"BED_ACUTE":0,"BED_TOTAL":895,"BED_LIC":0,"BASSINETTE":0,"ACUTE":"No","ICU":"No","PSYCHEM":"Yes","CAH":"No","NEON":0,"TRAUMA_P":0,"TRAUMA_G":0,"OPEN_HEART":0,"COUNTY":"PIERCE CO.","SHORT_NAME":"Western State","PSC":0,"REHAB":" ","Cardiac":" ","HAI_Link":0,"VAP_Link":0,"Program":" ","PCI":0,"Stroke_L":" ","Cardiac_L":" ","Stroke":" ","Funding":"State","Dialysis":0,"Unique_id":61,"Ebola":" ","Trauma_D":" ","Beds_ER":0,"Beds_ERT":0,"Beds_OR":0,"Beds_ORT":0,"Rehab_L":" ","Trauma_H":0,"Heli":"No","Weblink":"https://www.dshs.wa.gov/bhsia/division-state-hospitals/western-state-hospital-general-information"},"geometry":{"type":"Point","coordinates":[-122.56573498095828,47.17831998398114]}},{"type":"Feature","properties":{"OBJECTID":57,"NAME":"Three Rivers Hospital","LINK":58,"DOHLIC":23,"ADDRESS":"507 Hospital Way","CITY":"Brewster","ZIP":"98812","ZIP4":"0577","PHONE":"(509) 689-2517","FAX":"(509) 689-2086","BED_ICU":0,"BED_NURSIN":20,"BED_CHEM":0,"BED_PSY":0,"BED_ACUTE":15,"BED_TOTAL":25,"BED_LIC":43,"BASSINETTE":6,"ACUTE":"Yes","ICU":"Yes","PSYCHEM":"No","CAH":"Yes","NEON":1,"TRAUMA_P":0,"TRAUMA_G":4,"OPEN_HEART":0,"COUNTY":"OKANOGAN CO.","SHORT_NAME":"Three Rivers","PSC":0,"REHAB":" ","Cardiac":"No","HAI_Link":58,"VAP_Link":58,"Program":"Healthcare Acquired Infections","PCI":0,"Stroke_L":"III","Cardiac_L":"II","Stroke":"III","Funding":"District","Dialysis":1,"Unique_id":62,"Ebola":" ","Trauma_D":"IV","Beds_ER":4,"Beds_ERT":1,"Beds_OR":2,"Beds_ORT":1,"Rehab_L":" ","Trauma_H":1,"Heli":"Yes","Weblink":"http://www.wsha.org/hospitalDetail.cfm?HID=17"},"geometry":{"type":"Point","coordinates":[-119.78263285615547,48.1062260691605]}},{"type":"Feature","properties":{"OBJECTID":58,"NAME":"Harrison Medical Center - Silverdale","LINK":28,"DOHLIC":0,"ADDRESS":"1800 NW Myhre Rd","CITY":"Silverdale","ZIP":"98383","ZIP4":" ","PHONE":"(360) 337-8800","FAX":" ","BED_ICU":0,"BED_NURSIN":0,"BED_CHEM":0,"BED_PSY":0,"BED_ACUTE":44,"BED_TOTAL":44,"BED_LIC":0,"BASSINETTE":0,"ACUTE":"Yes","ICU":"No","PSYCHEM":"No","CAH":"No","NEON":2,"TRAUMA_P":0,"TRAUMA_G":0,"OPEN_HEART":0,"COUNTY":"KITSAP CO.","SHORT_NAME":"Harrison Memorial","PSC":0,"REHAB":" ","Cardiac":"No","HAI_Link":0,"VAP_Link":0,"Program":" ","PCI":0,"Stroke_L":" ","Cardiac_L":" ","Stroke":" ","Funding":"Not For Profit","Dialysis":1,"Unique_id":63,"Ebola":" ","Trauma_D":" ","Beds_ER":0,"Beds_ERT":0,"Beds_OR":0,"Beds_ORT":0,"Rehab_L":" ","Trauma_H":0,"Heli":"No","Weblink":"http://www.harrisonmedical.org/home/location/2"},"geometry":{"type":"Point","coordinates":[-122.6754058552912,47.65554834630169]}},{"type":"Feature","properties":{"OBJECTID":59,"NAME":"Naval Hospital Oak Harbor","LINK":52,"DOHLIC":0,"ADDRESS":"3475 N. Saratoga St.","CITY":"Oak Harbor","ZIP":"98278","ZIP4":"8800","PHONE":"(360) 257-9500","FAX":"(360) 257-9719","BED_ICU":0,"BED_NURSIN":0,"BED_CHEM":0,"BED_PSY":0,"BED_ACUTE":25,"BED_TOTAL":25,"BED_LIC":0,"BASSINETTE":0,"ACUTE":"No","ICU":"No","PSYCHEM":"No","CAH":"No","NEON":1,"TRAUMA_P":0,"TRAUMA_G":0,"OPEN_HEART":0,"COUNTY":"ISLAND CO.","SHORT_NAME":"Naval","PSC":0,"REHAB":" ","Cardiac":"No","HAI_Link":0,"VAP_Link":0,"Program":" ","PCI":0,"Stroke_L":" ","Cardiac_L":" ","Stroke":"U","Funding":"Military","Dialysis":1,"Unique_id":64,"Ebola":" ","Trauma_D":" ","Beds_ER":0,"Beds_ERT":0,"Beds_OR":0,"Beds_ORT":0,"Rehab_L":" ","Trauma_H":0,"Heli":"Yes","Weblink":"http://www.med.navy.mil/sites/nhoh/Pages/default.aspx"},"geometry":{"type":"Point","coordinates":[-122.68121282868027,48.33645899255293]}},{"type":"Feature","properties":{"OBJECTID":60,"NAME":"Coulee Medical Center","LINK":9,"DOHLIC":150,"ADDRESS":"411 Fortuyn Rd","CITY":"Grand Coulee","ZIP":"99133","ZIP4":"8718","PHONE":"(509) 633-1753","FAX":"(509) 633-0951","BED_ICU":0,"BED_NURSIN":2,"BED_CHEM":0,"BED_PSY":0,"BED_ACUTE":25,"BED_TOTAL":25,"BED_LIC":48,"BASSINETTE":0,"ACUTE":"Yes","ICU":"No","PSYCHEM":"No","CAH":"Yes","NEON":1,"TRAUMA_P":0,"TRAUMA_G":4,"OPEN_HEART":0,"COUNTY":"GRANT CO.","SHORT_NAME":"Coulee Medical Center","PSC":0,"REHAB":" ","Cardiac":"No","HAI_Link":0,"VAP_Link":0,"Program":" ","PCI":0,"Stroke_L":" ","Cardiac_L":"II","Stroke":"III","Funding":"District","Dialysis":1,"Unique_id":65,"Ebola":" ","Trauma_D":"IV","Beds_ER":4,"Beds_ERT":2,"Beds_OR":2,"Beds_ORT":1,"Rehab_L":" ","Trauma_H":1,"Heli":"Yes","Weblink":"http://www.wsha.org/hospitalDetail.cfm?HID=40"},"geometry":{"type":"Point","coordinates":[-119.00699328338281,47.94222347200399]}},{"type":"Feature","properties":{"OBJECTID":61,"NAME":"PMH Medical Center","LINK":64,"DOHLIC":46,"ADDRESS":"723 Memorial St","CITY":"Prosser","ZIP":"99350","ZIP4":"1593","PHONE":"(509) 786-2222","FAX":"(509) 786-2307","BED_ICU":0,"BED_NURSIN":36,"BED_CHEM":0,"BED_PSY":0,"BED_ACUTE":26,"BED_TOTAL":25,"BED_LIC":62,"BASSINETTE":8,"ACUTE":"Yes","ICU":"No","PSYCHEM":"No","CAH":"Yes","NEON":1,"TRAUMA_P":0,"TRAUMA_G":4,"OPEN_HEART":0,"COUNTY":"BENTON CO.","SHORT_NAME":"PMH","PSC":0,"REHAB":" ","Cardiac":"No","HAI_Link":0,"VAP_Link":0,"Program":" ","PCI":0,"Stroke_L":"III","Cardiac_L":"II","Stroke":"III","Funding":"District","Dialysis":1,"Unique_id":66,"Ebola":" ","Trauma_D":"IV","Beds_ER":7,"Beds_ERT":2,"Beds_OR":2,"Beds_ORT":1,"Rehab_L":" ","Trauma_H":1,"Heli":"Yes","Weblink":"http://www.wsha.org/hospitalDetail.cfm?HID=63"},"geometry":{"type":"Point","coordinates":[-119.76404710741043,46.20808244092981]}},{"type":"Feature","properties":{"OBJECTID":62,"NAME":"Providence Centralia Hospital","LINK":65,"DOHLIC":191,"ADDRESS":"914 South Scheuber Road","CITY":"Centralia","ZIP":"98531","ZIP4":"9027","PHONE":"(360) 736-2803","FAX":"(360) 740-8320","BED_ICU":4,"BED_NURSIN":63,"BED_CHEM":0,"BED_PSY":0,"BED_ACUTE":110,"BED_TOTAL":128,"BED_LIC":191,"BASSINETTE":0,"ACUTE":"Yes","ICU":"Yes","PSYCHEM":"No","CAH":"No","NEON":1,"TRAUMA_P":0,"TRAUMA_G":4,"OPEN_HEART":0,"COUNTY":"LEWIS CO.","SHORT_NAME":"Centralia","PSC":0,"REHAB":" ","Cardiac":"No","HAI_Link":65,"VAP_Link":65,"Program":"Healthcare Acquired Infections","PCI":0,"Stroke_L":"III","Cardiac_L":"II","Stroke":"III","Funding":"Not For Profit","Dialysis":1,"Unique_id":67,"Ebola":" ","Trauma_D":"IV","Beds_ER":22,"Beds_ERT":2,"Beds_OR":4,"Beds_ORT":4,"Rehab_L":" ","Trauma_H":1,"Heli":"Yes","Weblink":"http://www.wsha.org/hospitalDetail.cfm?HID=20"},"geometry":{"type":"Point","coordinates":[-122.98825507905933,46.711538356713234]}},{"type":"Feature","properties":{"OBJECTID":63,"NAME":"Quincy Valley Medical Center","LINK":73,"DOHLIC":129,"ADDRESS":"908 10th Ave SW","CITY":"Quincy","ZIP":"98848","ZIP4":"1376","PHONE":"(509) 787-3531","FAX":"(509) 787-2016","BED_ICU":0,"BED_NURSIN":4,"BED_CHEM":0,"BED_PSY":0,"BED_ACUTE":25,"BED_TOTAL":29,"BED_LIC":38,"BASSINETTE":6,"ACUTE":"Yes","ICU":"No","PSYCHEM":"No","CAH":"Yes","NEON":4,"TRAUMA_P":0,"TRAUMA_G":5,"OPEN_HEART":0,"COUNTY":"GRANT CO.","SHORT_NAME":"Quincy Valley","PSC":0,"REHAB":" ","Cardiac":"No","HAI_Link":0,"VAP_Link":0,"Program":" ","PCI":0,"Stroke_L":" ","Cardiac_L":"II","Stroke":"III","Funding":"District","Dialysis":1,"Unique_id":68,"Ebola":" ","Trauma_D":"V","Beds_ER":3,"Beds_ERT":2,"Beds_OR":1,"Beds_ORT":0,"Rehab_L":" ","Trauma_H":1,"Heli":"Yes","Weblink":"http://www.wsha.org/hospitalDetail.cfm?HID=66"},"geometry":{"type":"Point","coordinates":[-119.86817223670919,47.230906697019925]}},{"type":"Feature","properties":{"OBJECTID":64,"NAME":"Walla Walla General Hospital","LINK":111,"DOHLIC":43,"ADDRESS":"1025 2nd Ave S","CITY":"Walla Walla","ZIP":"99362","ZIP4":"0309","PHONE":"(509) 525-0480","FAX":"(509) 527-8225","BED_ICU":5,"BED_NURSIN":5,"BED_CHEM":0,"BED_PSY":0,"BED_ACUTE":47,"BED_TOTAL":37,"BED_LIC":72,"BASSINETTE":5,"ACUTE":"Yes","ICU":"Yes","PSYCHEM":"No","CAH":"No","NEON":1,"TRAUMA_P":0,"TRAUMA_G":3,"OPEN_HEART":0,"COUNTY":"WALLA WALLA CO.","SHORT_NAME":"Walla Walla","PSC":0,"REHAB":" ","Cardiac":"No","HAI_Link":111,"VAP_Link":111,"Program":"Healthcare Acquired Infections","PCI":0,"Stroke_L":"II","Cardiac_L":"II","Stroke":"II","Funding":"Not For Profit","Dialysis":1,"Unique_id":69,"Ebola":" ","Trauma_D":"III","Beds_ER":7,"Beds_ERT":4,"Beds_OR":3,"Beds_ORT":2,"Rehab_L":" ","Trauma_H":1,"Heli":"Yes","Weblink":"http://www.wsha.org/hospitalDetail.cfm?HID=107"},"geometry":{"type":"Point","coordinates":[-118.329166380742,46.055162752268856]}},{"type":"Feature","properties":{"OBJECTID":65,"NAME":"Confluence Health/Wenatchee Valley Hospital","LINK":112,"DOHLIC":205,"ADDRESS":"820 N. Chelan Avenue","CITY":"Wenatchee","ZIP":"98801","ZIP4":" ","PHONE":"(509) 665-5850","FAX":"(509) 665-5864","BED_ICU":0,"BED_NURSIN":0,"BED_CHEM":9,"BED_PSY":0,"BED_ACUTE":11,"BED_TOTAL":20,"BED_LIC":21,"BASSINETTE":0,"ACUTE":"Yes","ICU":"No","PSYCHEM":"No","CAH":"No","NEON":4,"TRAUMA_P":0,"TRAUMA_G":0,"OPEN_HEART":0,"COUNTY":"CHELAN CO.","SHORT_NAME":"Wenatchee Valley","PSC":0,"REHAB":"IIR","Cardiac":"No","HAI_Link":0,"VAP_Link":0,"Program":" ","PCI":0,"Stroke_L":" ","Cardiac_L":" ","Stroke":" ","Funding":"Proprietary","Dialysis":1,"Unique_id":70,"Ebola":" ","Trauma_D":" ","Beds_ER":0,"Beds_ERT":0,"Beds_OR":0,"Beds_ORT":0,"Rehab_L":"II","Trauma_H":1,"Heli":"No","Weblink":"http://www.wsha.org/hospitalDetail.cfm?HID=144"},"geometry":{"type":"Point","coordinates":[-120.3230866351281,47.433529278585716]}},{"type":"Feature","properties":{"OBJECTID":66,"NAME":"Newport Hospital & Health Services","LINK":53,"DOHLIC":21,"ADDRESS":"714 West Pine St.","CITY":"Newport","ZIP":"99156","ZIP4":"9046","PHONE":"(509) 447-2441","FAX":"(509) 447-5527","BED_ICU":0,"BED_NURSIN":92,"BED_CHEM":0,"BED_PSY":0,"BED_ACUTE":24,"BED_TOTAL":25,"BED_LIC":74,"BASSINETTE":5,"ACUTE":"Yes","ICU":"No","PSYCHEM":"No","CAH":"Yes","NEON":1,"TRAUMA_P":0,"TRAUMA_G":4,"OPEN_HEART":0,"COUNTY":"PEND OREILLE CO.","SHORT_NAME":"Newport","PSC":0,"REHAB":" ","Cardiac":"No","HAI_Link":0,"VAP_Link":0,"Program":" ","PCI":0,"Stroke_L":"III","Cardiac_L":"II","Stroke":"III","Funding":"District","Dialysis":1,"Unique_id":71,"Ebola":" ","Trauma_D":"IV","Beds_ER":4,"Beds_ERT":2,"Beds_OR":1,"Beds_ORT":1,"Rehab_L":" ","Trauma_H":1,"Heli":"Yes","Weblink":"http://www.wsha.org/hospitalDetail.cfm?HID=52"},"geometry":{"type":"Point","coordinates":[-117.04919780206798,48.182422201215054]}},{"type":"Feature","properties":{"OBJECTID":67,"NAME":"Garfield County Public Hospital District","LINK":20,"DOHLIC":82,"ADDRESS":"66 N 6th Street","CITY":"Pomeroy","ZIP":"99347","ZIP4":"0880","PHONE":"(509) 843-1591","FAX":"(509) 843-1234","BED_ICU":0,"BED_NURSIN":20,"BED_CHEM":0,"BED_PSY":0,"BED_ACUTE":25,"BED_TOTAL":25,"BED_LIC":45,"BASSINETTE":0,"ACUTE":"Yes","ICU":"No","PSYCHEM":"No","CAH":"Yes","NEON":4,"TRAUMA_P":0,"TRAUMA_G":5,"OPEN_HEART":0,"COUNTY":"GARFIELD CO.","SHORT_NAME":"Garfield County","PSC":0,"REHAB":" ","Cardiac":"No","HAI_Link":0,"VAP_Link":0,"Program":" ","PCI":0,"Stroke_L":" ","Cardiac_L":"II","Stroke":"U","Funding":"District","Dialysis":1,"Unique_id":72,"Ebola":" ","Trauma_D":"V","Beds_ER":2,"Beds_ERT":2,"Beds_OR":0,"Beds_ORT":0,"Rehab_L":" ","Trauma_H":1,"Heli":"Yes","Weblink":"http://www.wsha.org/hospitalDetail.cfm?HID=60"},"geometry":{"type":"Point","coordinates":[-117.60294818391729,46.47549923122737]}},{"type":"Feature","properties":{"OBJECTID":68,"NAME":"Cascade Medical Center","LINK":4,"DOHLIC":158,"ADDRESS":"817 Commercial St","CITY":"Leavenworth","ZIP":"98826","ZIP4":"0330","PHONE":"(509) 548-5815","FAX":"(509) 548-1411","BED_ICU":0,"BED_NURSIN":0,"BED_CHEM":0,"BED_PSY":0,"BED_ACUTE":5,"BED_TOTAL":9,"BED_LIC":12,"BASSINETTE":0,"ACUTE":"Yes","ICU":"No","PSYCHEM":"No","CAH":"Yes","NEON":4,"TRAUMA_P":0,"TRAUMA_G":5,"OPEN_HEART":0,"COUNTY":"CHELAN CO.","SHORT_NAME":"Cascade","PSC":0,"REHAB":" ","Cardiac":"No","HAI_Link":0,"VAP_Link":0,"Program":" ","PCI":0,"Stroke_L":" ","Cardiac_L":" ","Stroke":"U","Funding":"District","Dialysis":1,"Unique_id":73,"Ebola":" ","Trauma_D":"V","Beds_ER":7,"Beds_ERT":7,"Beds_OR":0,"Beds_ORT":0,"Rehab_L":" ","Trauma_H":1,"Heli":"Yes","Weblink":"http://www.wsha.org/hospitalDetail.cfm?HID=45"},"geometry":{"type":"Point","coordinates":[-120.66078679676183,47.59445119763795]}},{"type":"Feature","properties":{"OBJECTID":69,"NAME":"Columbia Basin Hospital","LINK":8,"DOHLIC":45,"ADDRESS":"200 Southeast Blvd","CITY":"Ephrata","ZIP":"98823","ZIP4":"1997","PHONE":"(509) 754-4631","FAX":"(509) 754-6356","BED_ICU":0,"BED_NURSIN":32,"BED_CHEM":0,"BED_PSY":0,"BED_ACUTE":58,"BED_TOTAL":25,"BED_LIC":58,"BASSINETTE":0,"ACUTE":"Yes","ICU":"No","PSYCHEM":"No","CAH":"Yes","NEON":4,"TRAUMA_P":0,"TRAUMA_G":5,"OPEN_HEART":0,"COUNTY":"GRANT CO.","SHORT_NAME":"Columbia Basin","PSC":0,"REHAB":" ","Cardiac":"No","HAI_Link":0,"VAP_Link":0,"Program":" ","PCI":0,"Stroke_L":" ","Cardiac_L":"II","Stroke":"III","Funding":"District","Dialysis":1,"Unique_id":74,"Ebola":" ","Trauma_D":"V","Beds_ER":5,"Beds_ERT":2,"Beds_OR":0,"Beds_ORT":0,"Rehab_L":" ","Trauma_H":1,"Heli":"Yes","Weblink":"http://www.wsha.org/hospitalDetail.cfm?HID=33"},"geometry":{"type":"Point","coordinates":[-119.54967682415335,47.31775364141216]}},{"type":"Feature","properties":{"OBJECTID":70,"NAME":"Columbia County Health System","LINK":11,"DOHLIC":141,"ADDRESS":"1012 S 3rd St","CITY":"Dayton","ZIP":"99328","ZIP4":"1696","PHONE":"(509) 382-2531","FAX":"(509) 382-3205","BED_ICU":0,"BED_NURSIN":5,"BED_CHEM":0,"BED_PSY":0,"BED_ACUTE":25,"BED_TOTAL":25,"BED_LIC":15,"BASSINETTE":0,"ACUTE":"Yes","ICU":"No","PSYCHEM":"No","CAH":"Yes","NEON":4,"TRAUMA_P":0,"TRAUMA_G":5,"OPEN_HEART":0,"COUNTY":"COLUMBIA CO.","SHORT_NAME":"Columbia County","PSC":0,"REHAB":" ","Cardiac":"No","HAI_Link":0,"VAP_Link":0,"Program":" ","PCI":0,"Stroke_L":"III","Cardiac_L":" ","Stroke":"III","Funding":"District","Dialysis":1,"Unique_id":75,"Ebola":" ","Trauma_D":"V","Beds_ER":3,"Beds_ERT":1,"Beds_OR":0,"Beds_ORT":0,"Rehab_L":" ","Trauma_H":1,"Heli":"Yes","Weblink":"http://www.wsha.org/hospitalDetail.cfm?HID=28"},"geometry":{"type":"Point","coordinates":[-117.97025384679439,46.31210477455094]}},{"type":"Feature","properties":{"OBJECTID":71,"NAME":"Forks Community Hospital","LINK":19,"DOHLIC":54,"ADDRESS":"530 Bogachiel Way","CITY":"Forks","ZIP":"98331","ZIP4":"9120","PHONE":"(360) 374-6271","FAX":"(360) 374-5220","BED_ICU":0,"BED_NURSIN":36,"BED_CHEM":0,"BED_PSY":0,"BED_ACUTE":17,"BED_TOTAL":25,"BED_LIC":53,"BASSINETTE":3,"ACUTE":"Yes","ICU":"No","PSYCHEM":"No","CAH":"Yes","NEON":1,"TRAUMA_P":0,"TRAUMA_G":4,"OPEN_HEART":0,"COUNTY":"CLALLAM CO.","SHORT_NAME":"Forks Community","PSC":0,"REHAB":" ","Cardiac":"No","HAI_Link":0,"VAP_Link":0,"Program":" ","PCI":0,"Stroke_L":"III","Cardiac_L":"II","Stroke":"III","Funding":"District","Dialysis":1,"Unique_id":76,"Ebola":" ","Trauma_D":"IV","Beds_ER":4,"Beds_ERT":3,"Beds_OR":2,"Beds_ORT":1,"Rehab_L":" ","Trauma_H":1,"Heli":"Yes","Weblink":"http://www.wsha.org/hospitalDetail.cfm?HID=38"},"geometry":{"type":"Point","coordinates":[-124.39258800052067,47.946207343030935]}},{"type":"Feature","properties":{"OBJECTID":72,"NAME":"Grays Harbor Community Hospital","LINK":23,"DOHLIC":63,"ADDRESS":"915 Anderson Dr","CITY":"Aberdeen","ZIP":"98520","ZIP4":"1097","PHONE":"(360) 537-5000","FAX":"(360) 537-5034","BED_ICU":10,"BED_NURSIN":0,"BED_CHEM":0,"BED_PSY":0,"BED_ACUTE":83,"BED_TOTAL":112,"BED_LIC":200,"BASSINETTE":18,"ACUTE":"Yes","ICU":"Yes","PSYCHEM":"No","CAH":"No","NEON":1,"TRAUMA_P":0,"TRAUMA_G":3,"OPEN_HEART":0,"COUNTY":"GRAYS HARBOR CO.","SHORT_NAME":"Grays Harbor","PSC":0,"REHAB":" ","Cardiac":"No","HAI_Link":0,"VAP_Link":0,"Program":" ","PCI":0,"Stroke_L":"II","Cardiac_L":"II","Stroke":"II","Funding":"Not For Profit","Dialysis":1,"Unique_id":77,"Ebola":" ","Trauma_D":"III","Beds_ER":19,"Beds_ERT":17,"Beds_OR":4,"Beds_ORT":4,"Rehab_L":" ","Trauma_H":1,"Heli":"Yes","Weblink":"http://www.wsha.org/hospitalDetail.cfm?HID=1"},"geometry":{"type":"Point","coordinates":[-123.84718595182461,46.97923558120814]}},{"type":"Feature","properties":{"OBJECTID":73,"NAME":"Island Hospital","LINK":32,"DOHLIC":134,"ADDRESS":"1211 24th St","CITY":"Anacortes","ZIP":"98221","ZIP4":"2590","PHONE":"(360) 299-1300","FAX":"(360) 299-1384","BED_ICU":6,"BED_NURSIN":0,"BED_CHEM":0,"BED_PSY":0,"BED_ACUTE":37,"BED_TOTAL":43,"BED_LIC":43,"BASSINETTE":6,"ACUTE":"Yes","ICU":"Yes","PSYCHEM":"No","CAH":"No","NEON":1,"TRAUMA_P":0,"TRAUMA_G":3,"OPEN_HEART":0,"COUNTY":"SKAGIT CO.","SHORT_NAME":"Island","PSC":0,"REHAB":" ","Cardiac":"No","HAI_Link":32,"VAP_Link":32,"Program":"Healthcare Acquired Infections","PCI":0,"Stroke_L":"II","Cardiac_L":"II","Stroke":"II","Funding":"District","Dialysis":1,"Unique_id":78,"Ebola":" ","Trauma_D":"III","Beds_ER":10,"Beds_ERT":2,"Beds_OR":5,"Beds_ORT":4,"Rehab_L":" ","Trauma_H":1,"Heli":"Yes","Weblink":"http://www.wsha.org/hospitalDetail.cfm?HID=2"},"geometry":{"type":"Point","coordinates":[-122.61566679009272,48.5019287554348]}},{"type":"Feature","properties":{"OBJECTID":74,"NAME":"Jefferson Healthcare","LINK":33,"DOHLIC":85,"ADDRESS":"834 Sheridan St","CITY":"Port Townsend","ZIP":"98368","ZIP4":"2499","PHONE":"(360) 385-2200","FAX":"(360) 385-1548","BED_ICU":6,"BED_NURSIN":0,"BED_CHEM":0,"BED_PSY":0,"BED_ACUTE":25,"BED_TOTAL":25,"BED_LIC":42,"BASSINETTE":4,"ACUTE":"Yes","ICU":"Yes","PSYCHEM":"No","CAH":"Yes","NEON":1,"TRAUMA_P":0,"TRAUMA_G":4,"OPEN_HEART":0,"COUNTY":"JEFFERSON CO.","SHORT_NAME":"Jefferson Healthcare","PSC":0,"REHAB":" ","Cardiac":"No","HAI_Link":33,"VAP_Link":33,"Program":"Healthcare Acquired Infections","PCI":0,"Stroke_L":"III","Cardiac_L":"II","Stroke":"III","Funding":"District","Dialysis":1,"Unique_id":79,"Ebola":" ","Trauma_D":"IV","Beds_ER":7,"Beds_ERT":3,"Beds_OR":3,"Beds_ORT":3,"Rehab_L":" ","Trauma_H":1,"Heli":"Yes","Weblink":"http://www.wsha.org/hospitalDetail.cfm?HID=62"},"geometry":{"type":"Point","coordinates":[-122.78927319142888,48.10604332078115]}},{"type":"Feature","properties":{"OBJECTID":75,"NAME":"Kadlec Regional Medical Center","LINK":34,"DOHLIC":161,"ADDRESS":"888 Swift Blvd","CITY":"Richland","ZIP":"99352","ZIP4":"3583","PHONE":"(509) 946-4611","FAX":"(509) 942-2003","BED_ICU":20,"BED_NURSIN":0,"BED_CHEM":0,"BED_PSY":0,"BED_ACUTE":143,"BED_TOTAL":235,"BED_LIC":153,"BASSINETTE":18,"ACUTE":"Yes","ICU":"Yes","PSYCHEM":"No","CAH":"No","NEON":3,"TRAUMA_P":0,"TRAUMA_G":3,"OPEN_HEART":1,"COUNTY":"BENTON CO.","SHORT_NAME":"Kadlec","PSC":0,"REHAB":"IIR","Cardiac":"Yes","HAI_Link":34,"VAP_Link":34,"Program":"Healthcare Acquired Infections","PCI":1,"Stroke_L":"II","Cardiac_L":"I","Stroke":"II","Funding":"Not For Profit","Dialysis":1,"Unique_id":80,"Ebola":" ","Trauma_D":"III","Beds_ER":34,"Beds_ERT":2,"Beds_OR":10,"Beds_ORT":1,"Rehab_L":"II","Trauma_H":1,"Heli":"Yes","Weblink":"http://www.wsha.org/hospitalDetail.cfm?HID=70"},"geometry":{"type":"Point","coordinates":[-119.28195598327294,46.28134337491793]}},{"type":"Feature","properties":{"OBJECTID":76,"NAME":"Lincoln Hospital","LINK":41,"DOHLIC":137,"ADDRESS":"10 Nichols St","CITY":"Davenport","ZIP":"99122","ZIP4":"0068","PHONE":"(509) 725-7101","FAX":"(509) 725-2112","BED_ICU":0,"BED_NURSIN":78,"BED_CHEM":0,"BED_PSY":0,"BED_ACUTE":24,"BED_TOTAL":25,"BED_LIC":102,"BASSINETTE":5,"ACUTE":"Yes","ICU":"No","PSYCHEM":"No","CAH":"Yes","NEON":4,"TRAUMA_P":0,"TRAUMA_G":5,"OPEN_HEART":0,"COUNTY":"LINCOLN CO.","SHORT_NAME":"Lincoln","PSC":0,"REHAB":" ","Cardiac":"No","HAI_Link":0,"VAP_Link":0,"Program":" ","PCI":0,"Stroke_L":"III","Cardiac_L":"II","Stroke":"III","Funding":"District","Dialysis":1,"Unique_id":81,"Ebola":" ","Trauma_D":"V","Beds_ER":2,"Beds_ERT":2,"Beds_OR":0,"Beds_ORT":0,"Rehab_L":" ","Trauma_H":1,"Heli":"Yes","Weblink":"http://www.wsha.org/hospitalDetail.cfm?HID=27"},"geometry":{"type":"Point","coordinates":[-118.14535981317343,47.6579277174338]}},{"type":"Feature","properties":{"OBJECTID":77,"NAME":"Providence Mount Carmel Hospital","LINK":50,"DOHLIC":30,"ADDRESS":"982 E Columbia Ave","CITY":"Colville","ZIP":"99114","ZIP4":"0351","PHONE":"(509) 684-2561","FAX":"(509) 685-2492","BED_ICU":4,"BED_NURSIN":0,"BED_CHEM":0,"BED_PSY":0,"BED_ACUTE":25,"BED_TOTAL":25,"BED_LIC":55,"BASSINETTE":0,"ACUTE":"Yes","ICU":"Yes","PSYCHEM":"No","CAH":"Yes","NEON":1,"TRAUMA_P":0,"TRAUMA_G":4,"OPEN_HEART":0,"COUNTY":"STEVENS CO.","SHORT_NAME":"Mount Carmel","PSC":0,"REHAB":" ","Cardiac":"No","HAI_Link":50,"VAP_Link":50,"Program":"Healthcare Acquired Infections","PCI":0,"Stroke_L":"III","Cardiac_L":"II","Stroke":"III","Funding":"Not For Profit","Dialysis":1,"Unique_id":82,"Ebola":" ","Trauma_D":"IV","Beds_ER":10,"Beds_ERT":10,"Beds_OR":2,"Beds_ORT":2,"Rehab_L":" ","Trauma_H":1,"Heli":"Yes","Weblink":"http://www.wsha.org/hospitalDetail.cfm?HID=25"},"geometry":{"type":"Point","coordinates":[-117.89274846863326,48.54067179129244]}},{"type":"Feature","properties":{"OBJECTID":78,"NAME":"Olympic Medical Center","LINK":59,"DOHLIC":38,"ADDRESS":"939 Caroline St","CITY":"Port Angeles","ZIP":"98362","ZIP4":"3997","PHONE":"(360) 417-7000","FAX":"(360) 417-7739","BED_ICU":9,"BED_NURSIN":0,"BED_CHEM":0,"BED_PSY":0,"BED_ACUTE":107,"BED_TOTAL":80,"BED_LIC":126,"BASSINETTE":15,"ACUTE":"Yes","ICU":"Yes","PSYCHEM":"No","CAH":"No","NEON":1,"TRAUMA_P":0,"TRAUMA_G":3,"OPEN_HEART":0,"COUNTY":"CLALLAM CO.","SHORT_NAME":"Olympic","PSC":0,"REHAB":" ","Cardiac":"No","HAI_Link":59,"VAP_Link":59,"Program":"Healthcare Acquired Infections","PCI":0,"Stroke_L":"III","Cardiac_L":"II","Stroke":"III","Funding":"District","Dialysis":1,"Unique_id":83,"Ebola":" ","Trauma_D":"III","Beds_ER":13,"Beds_ERT":2,"Beds_OR":7,"Beds_ORT":2,"Rehab_L":" ","Trauma_H":1,"Heli":"Yes","Weblink":"http://www.wsha.org/hospitalDetail.cfm?HID=61"},"geometry":{"type":"Point","coordinates":[-123.41502706158013,48.11555566879273]}},{"type":"Feature","properties":{"OBJECTID":79,"NAME":"Peacehealth St. Joseph Hospital","LINK":78,"DOHLIC":145,"ADDRESS":"2901 Squalicum Parkway","CITY":"Bellingham","ZIP":"98225","ZIP4":"1898","PHONE":"(360) 734-5400","FAX":"(360) 715-6406","BED_ICU":24,"BED_NURSIN":0,"BED_CHEM":0,"BED_PSY":0,"BED_ACUTE":153,"BED_TOTAL":253,"BED_LIC":253,"BASSINETTE":30,"ACUTE":"Yes","ICU":"Yes","PSYCHEM":"No","CAH":"No","NEON":2,"TRAUMA_P":0,"TRAUMA_G":3,"OPEN_HEART":1,"COUNTY":"WHATCOM CO.","SHORT_NAME":"St. Joseph","PSC":0,"REHAB":"IIR","Cardiac":"Yes","HAI_Link":78,"VAP_Link":78,"Program":"Healthcare Acquired Infections","PCI":1,"Stroke_L":"II","Cardiac_L":"I","Stroke":"II","Funding":"Not For Profit","Dialysis":1,"Unique_id":84,"Ebola":"Assessment","Trauma_D":"II","Beds_ER":43,"Beds_ERT":23,"Beds_OR":8,"Beds_ORT":8,"Rehab_L":"II","Trauma_H":1,"Heli":"Yes","Weblink":"http://www.wsha.org/hospitalDetail.cfm?HID=15"},"geometry":{"type":"Point","coordinates":[-122.47318645250313,48.773315943251035]}},{"type":"Feature","properties":{"OBJECTID":80,"NAME":"Samaritan Healthcare","LINK":84,"DOHLIC":78,"ADDRESS":"801 E. Wheeler Rd","CITY":"Moses Lake","ZIP":"98837","ZIP4":"1899","PHONE":"(509) 765-5606","FAX":"(509) 765-3499","BED_ICU":9,"BED_NURSIN":0,"BED_CHEM":0,"BED_PSY":0,"BED_ACUTE":43,"BED_TOTAL":47,"BED_LIC":50,"BASSINETTE":0,"ACUTE":"Yes","ICU":"Yes","PSYCHEM":"No","CAH":"No","NEON":1,"TRAUMA_P":0,"TRAUMA_G":4,"OPEN_HEART":0,"COUNTY":"GRANT CO.","SHORT_NAME":"Samaritan","PSC":0,"REHAB":" ","Cardiac":"No","HAI_Link":84,"VAP_Link":84,"Program":"Healthcare Acquired Infections","PCI":0,"Stroke_L":"III","Cardiac_L":" ","Stroke":"III","Funding":"District","Dialysis":1,"Unique_id":85,"Ebola":" ","Trauma_D":"IV","Beds_ER":9,"Beds_ERT":2,"Beds_OR":5,"Beds_ORT":2,"Rehab_L":" ","Trauma_H":1,"Heli":"Yes","Weblink":"http://www.wsha.org/hospitalDetail.cfm?HID=50"},"geometry":{"type":"Point","coordinates":[-119.26518870999924,47.12816325211857]}},{"type":"Feature","properties":{"OBJECTID":81,"NAME":"Sunnyside Community Hospital","LINK":94,"DOHLIC":198,"ADDRESS":"1016 Tacoma Avenue","CITY":"Sunnyside","ZIP":"98944","ZIP4":"2262","PHONE":"(509) 837-1500","FAX":"(509) 837-1740","BED_ICU":5,"BED_NURSIN":0,"BED_CHEM":0,"BED_PSY":0,"BED_ACUTE":26,"BED_TOTAL":25,"BED_LIC":38,"BASSINETTE":6,"ACUTE":"Yes","ICU":"Yes","PSYCHEM":"No","CAH":"Yes","NEON":1,"TRAUMA_P":0,"TRAUMA_G":4,"OPEN_HEART":0,"COUNTY":"YAKIMA CO.","SHORT_NAME":"Sunnyside Community","PSC":0,"REHAB":" ","Cardiac":"No","HAI_Link":94,"VAP_Link":94,"Program":"Healthcare Acquired Infections","PCI":0,"Stroke_L":"III","Cardiac_L":"II","Stroke":"III","Funding":"Not For Profit","Dialysis":1,"Unique_id":86,"Ebola":" ","Trauma_D":"IV","Beds_ER":13,"Beds_ERT":2,"Beds_OR":3,"Beds_ORT":1,"Rehab_L":" ","Trauma_H":1,"Heli":"Yes","Weblink":"http://www.wsha.org/hospitalDetail.cfm?HID=95"},"geometry":{"type":"Point","coordinates":[-120.00668175762311,46.32247960277332]}},{"type":"Feature","properties":{"OBJECTID":82,"NAME":"Tri-State Memorial Hospital","LINK":99,"DOHLIC":108,"ADDRESS":"1221 Highland Ave","CITY":"Clarkston","ZIP":"99403","ZIP4":"0189","PHONE":"(509) 758-5511","FAX":"(509) 758-3566","BED_ICU":6,"BED_NURSIN":0,"BED_CHEM":0,"BED_PSY":0,"BED_ACUTE":25,"BED_TOTAL":25,"BED_LIC":62,"BASSINETTE":0,"ACUTE":"Yes","ICU":"No","PSYCHEM":"No","CAH":"Yes","NEON":4,"TRAUMA_P":0,"TRAUMA_G":4,"OPEN_HEART":0,"COUNTY":"ASOTIN CO.","SHORT_NAME":"Tri-State","PSC":0,"REHAB":" ","Cardiac":"No","HAI_Link":99,"VAP_Link":99,"Program":"Healthcare Acquired Infections","PCI":0,"Stroke_L":"II","Cardiac_L":"II","Stroke":"II","Funding":"Not For Profit","Dialysis":1,"Unique_id":87,"Ebola":" ","Trauma_D":"IV","Beds_ER":12,"Beds_ERT":8,"Beds_OR":4,"Beds_ORT":1,"Rehab_L":" ","Trauma_H":1,"Heli":"Yes","Weblink":"http://www.wsha.org/hospitalDetail.cfm?HID=23"},"geometry":{"type":"Point","coordinates":[-117.0543593386501,46.40286173649373]}},{"type":"Feature","properties":{"OBJECTID":83,"NAME":"Harrison Medical Center","LINK":27,"DOHLIC":142,"ADDRESS":"2520 Cherry Ave","CITY":"Bremerton","ZIP":"98310","ZIP4":"4270","PHONE":"(360) 377-3911","FAX":"(360) 792-6515","BED_ICU":20,"BED_NURSIN":0,"BED_CHEM":0,"BED_PSY":17,"BED_ACUTE":189,"BED_TOTAL":262,"BED_LIC":297,"BASSINETTE":18,"ACUTE":"Yes","ICU":"Yes","PSYCHEM":"Yes","CAH":"No","NEON":4,"TRAUMA_P":0,"TRAUMA_G":3,"OPEN_HEART":1,"COUNTY":"KITSAP CO.","SHORT_NAME":"Harrison","PSC":0,"REHAB":" ","Cardiac":"Yes","HAI_Link":27,"VAP_Link":27,"Program":"Healthcare Acquired Infections","PCI":1,"Stroke_L":"II","Cardiac_L":"I","Stroke":"II","Funding":"Not For Profit","Dialysis":1,"Unique_id":88,"Ebola":"Assessment","Trauma_D":"III","Beds_ER":32,"Beds_ERT":24,"Beds_OR":11,"Beds_ORT":6,"Rehab_L":" ","Trauma_H":1,"Heli":"Yes","Weblink":"http://www.wsha.org/hospitalDetail.cfm?HID=16"},"geometry":{"type":"Point","coordinates":[-122.62504593038939,47.583153298058356]}},{"type":"Feature","properties":{"OBJECTID":84,"NAME":"MultiCare Mary Bridge Children's Hospital and Health Center","LINK":46,"DOHLIC":175,"ADDRESS":"317 Martin Luther King Jr Way","CITY":"Tacoma","ZIP":"98405","ZIP4":"4234","PHONE":"(253) 403-1400","FAX":"(253) 552-1180","BED_ICU":9,"BED_NURSIN":0,"BED_CHEM":0,"BED_PSY":0,"BED_ACUTE":56,"BED_TOTAL":82,"BED_LIC":72,"BASSINETTE":0,"ACUTE":"Yes","ICU":"Yes","PSYCHEM":"No","CAH":"No","NEON":3,"TRAUMA_P":2,"TRAUMA_G":0,"OPEN_HEART":1,"COUNTY":"PIERCE CO.","SHORT_NAME":"Mary Bridge","PSC":0,"REHAB":" ","Cardiac":"No","HAI_Link":46,"VAP_Link":46,"Program":"Healthcare Acquired Infections","PCI":0,"Stroke_L":" ","Cardiac_L":" ","Stroke":" ","Funding":"Not For Profit","Dialysis":1,"Unique_id":89,"Ebola":" ","Trauma_D":"II Ped","Beds_ER":25,"Beds_ERT":4,"Beds_OR":19,"Beds_ORT":1,"Rehab_L":" ","Trauma_H":1,"Heli":"Yes","Weblink":"http://www.wsha.org/hospitalDetail.cfm?HID=97"},"geometry":{"type":"Point","coordinates":[-122.45286776639641,47.259811347349284]}},{"type":"Feature","properties":{"OBJECTID":85,"NAME":"Whidbey General Hospital","LINK":115,"DOHLIC":156,"ADDRESS":"101 North Main Street","CITY":"Coupeville","ZIP":"98239","ZIP4":"0400","PHONE":"(360) 678-5151","FAX":"(360) 678-0945","BED_ICU":4,"BED_NURSIN":0,"BED_CHEM":0,"BED_PSY":0,"BED_ACUTE":44,"BED_TOTAL":25,"BED_LIC":51,"BASSINETTE":6,"ACUTE":"Yes","ICU":"Yes","PSYCHEM":"No","CAH":"Yes","NEON":1,"TRAUMA_P":0,"TRAUMA_G":3,"OPEN_HEART":0,"COUNTY":"ISLAND CO.","SHORT_NAME":"Whidbey","PSC":0,"REHAB":" ","Cardiac":"No","HAI_Link":115,"VAP_Link":115,"Program":"Healthcare Acquired Infections","PCI":0,"Stroke_L":"III","Cardiac_L":"II","Stroke":"III","Funding":"District","Dialysis":1,"Unique_id":90,"Ebola":" ","Trauma_D":"III","Beds_ER":13,"Beds_ERT":5,"Beds_OR":4,"Beds_ORT":3,"Rehab_L":" ","Trauma_H":1,"Heli":"Yes","Weblink":"http://www.wsha.org/hospitalDetail.cfm?HID=26"},"geometry":{"type":"Point","coordinates":[-122.68432680201012,48.21389329319564]}},{"type":"Feature","properties":{"OBJECTID":86,"NAME":"Virginia Mason Medical Center","LINK":110,"DOHLIC":10,"ADDRESS":"1100 Ninth Avenue","CITY":"Seattle","ZIP":"98101","ZIP4":"0900","PHONE":"(206) 624-1144","FAX":"(206) 223-6924","BED_ICU":31,"BED_NURSIN":35,"BED_CHEM":0,"BED_PSY":0,"BED_ACUTE":288,"BED_TOTAL":291,"BED_LIC":371,"BASSINETTE":0,"ACUTE":"Yes","ICU":"Yes","PSYCHEM":"No","CAH":"No","NEON":4,"TRAUMA_P":0,"TRAUMA_G":0,"OPEN_HEART":1,"COUNTY":"KING CO.","SHORT_NAME":"Virginia Mason","PSC":3,"REHAB":" ","Cardiac":"Yes","HAI_Link":110,"VAP_Link":110,"Program":"Healthcare Acquired Infections","PCI":1,"Stroke_L":"I","Cardiac_L":"I","Stroke":"I","Funding":"Not For Profit","Dialysis":1,"Unique_id":91,"Ebola":" ","Trauma_D":" ","Beds_ER":0,"Beds_ERT":0,"Beds_OR":0,"Beds_ORT":0,"Rehab_L":" ","Trauma_H":0,"Heli":"No","Weblink":"http://www.wsha.org/hospitalDetail.cfm?HID=82"},"geometry":{"type":"Point","coordinates":[-122.32797387355168,47.6088248985047]}},{"type":"Feature","properties":{"OBJECTID":87,"NAME":"Capital Medical Center","LINK":3,"DOHLIC":197,"ADDRESS":"3900 Capital Mall Dr SW","CITY":"Olympia","ZIP":"98502","ZIP4":" ","PHONE":"(360) 754-5858","FAX":"(360) 956-2574","BED_ICU":10,"BED_NURSIN":9,"BED_CHEM":0,"BED_PSY":0,"BED_ACUTE":93,"BED_TOTAL":110,"BED_LIC":119,"BASSINETTE":10,"ACUTE":"Yes","ICU":"Yes","PSYCHEM":"No","CAH":"No","NEON":1,"TRAUMA_P":0,"TRAUMA_G":4,"OPEN_HEART":2,"COUNTY":"THURSTON CO.","SHORT_NAME":"Capital Medical","PSC":0,"REHAB":" ","Cardiac":"Yes","HAI_Link":3,"VAP_Link":0,"Program":"Healthcare Acquired Infections","PCI":1,"Stroke_L":"II","Cardiac_L":"I","Stroke":"II","Funding":"Proprietary","Dialysis":1,"Unique_id":92,"Ebola":" ","Trauma_D":"IV","Beds_ER":9,"Beds_ERT":5,"Beds_OR":6,"Beds_ORT":5,"Rehab_L":" ","Trauma_H":1,"Heli":"Yes","Weblink":"http://www.wsha.org/hospitalDetail.cfm?HID=54"},"geometry":{"type":"Point","coordinates":[-122.95178679973783,47.04273091401608]}},{"type":"Feature","properties":{"OBJECTID":88,"NAME":"Lourdes Counseling Center","LINK":42,"DOHLIC":0,"ADDRESS":"1175 Carondelet Drive","CITY":"Richland","ZIP":"99352","ZIP4":"3396","PHONE":"(509) 943-9104","FAX":"(509) 943-7206","BED_ICU":0,"BED_NURSIN":0,"BED_CHEM":0,"BED_PSY":32,"BED_ACUTE":0,"BED_TOTAL":32,"BED_LIC":32,"BASSINETTE":0,"ACUTE":"No","ICU":"No","PSYCHEM":"Yes","CAH":"No","NEON":0,"TRAUMA_P":0,"TRAUMA_G":0,"OPEN_HEART":0,"COUNTY":"BENTON CO.","SHORT_NAME":"Lourdes","PSC":0,"REHAB":" ","Cardiac":" ","HAI_Link":0,"VAP_Link":0,"Program":" ","PCI":0,"Stroke_L":" ","Cardiac_L":" ","Stroke":" ","Funding":"Not For Profit","Dialysis":0,"Unique_id":93,"Ebola":" ","Trauma_D":" ","Beds_ER":0,"Beds_ERT":0,"Beds_OR":0,"Beds_ORT":0,"Rehab_L":" ","Trauma_H":0,"Heli":"No","Weblink":"http://www.wsha.org/hospitalDetail.cfm?HID=59"},"geometry":{"type":"Point","coordinates":[-119.28130749067353,46.28312741130503]}},{"type":"Feature","properties":{"OBJECTID":89,"NAME":"Cascade Behavioral Health","LINK":30,"DOHLIC":0,"ADDRESS":"12844 Military Road South","CITY":"Tukwila","ZIP":"98168","ZIP4":" ","PHONE":"(206) 244-0180","FAX":"(206) 243-7002","BED_ICU":0,"BED_NURSIN":30,"BED_CHEM":20,"BED_PSY":20,"BED_ACUTE":84,"BED_TOTAL":93,"BED_LIC":0,"BASSINETTE":0,"ACUTE":"No","ICU":"No","PSYCHEM":"Yes","CAH":"No","NEON":0,"TRAUMA_P":0,"TRAUMA_G":0,"OPEN_HEART":0,"COUNTY":"KING CO.","SHORT_NAME":"Highline Community","PSC":0,"REHAB":" ","Cardiac":" ","HAI_Link":0,"VAP_Link":0,"Program":" ","PCI":1,"Stroke_L":" ","Cardiac_L":" ","Stroke":" ","Funding":"Proprietary","Dialysis":0,"Unique_id":94,"Ebola":" ","Trauma_D":" ","Beds_ER":0,"Beds_ERT":0,"Beds_OR":0,"Beds_ORT":0,"Rehab_L":" ","Trauma_H":0,"Heli":"No","Weblink":"http://www.wsha.org/hospitalDetail.cfm?HID=207"},"geometry":{"type":"Point","coordinates":[-122.29597826347168,47.48771669941088]}},{"type":"Feature","properties":{"OBJECTID":90,"NAME":"Shick Shadel Hosptial","LINK":86,"DOHLIC":0,"ADDRESS":"12101 Ambaum Blvd. S.W","CITY":"Seattle","ZIP":"98146","ZIP4":"2699","PHONE":"(206) 244-8100","FAX":" ","BED_ICU":0,"BED_NURSIN":0,"BED_CHEM":63,"BED_PSY":0,"BED_ACUTE":0,"BED_TOTAL":63,"BED_LIC":0,"BASSINETTE":0,"ACUTE":"No","ICU":"No","PSYCHEM":"Yes","CAH":"No","NEON":0,"TRAUMA_P":0,"TRAUMA_G":0,"OPEN_HEART":0,"COUNTY":"KING CO.","SHORT_NAME":"Shick Shadel","PSC":0,"REHAB":" ","Cardiac":" ","HAI_Link":0,"VAP_Link":0,"Program":" ","PCI":0,"Stroke_L":" ","Cardiac_L":" ","Stroke":" ","Funding":"Proprietary","Dialysis":0,"Unique_id":95,"Ebola":" ","Trauma_D":" ","Beds_ER":0,"Beds_ERT":0,"Beds_OR":0,"Beds_ORT":0,"Rehab_L":" ","Trauma_H":0,"Heli":"No","Weblink":"http://schickshadel.com/"},"geometry":{"type":"Point","coordinates":[-122.35069899655569,47.49433228867713]}},{"type":"Feature","properties":{"OBJECTID":91,"NAME":"Swedish Medical Center - Ballard Campus","LINK":95,"DOHLIC":999,"ADDRESS":"5300 Tallman Ave NW","CITY":"Seattle","ZIP":"98107","ZIP4":"3985","PHONE":"(206) 782-2700","FAX":" ","BED_ICU":0,"BED_NURSIN":30,"BED_CHEM":29,"BED_PSY":0,"BED_ACUTE":104,"BED_TOTAL":312,"BED_LIC":0,"BASSINETTE":0,"ACUTE":"Yes","ICU":"?","PSYCHEM":"Yes","CAH":"No","NEON":1,"TRAUMA_P":0,"TRAUMA_G":0,"OPEN_HEART":0,"COUNTY":"KING CO.","SHORT_NAME":"Swedish","PSC":1,"REHAB":" ","Cardiac":"No","HAI_Link":0,"VAP_Link":0,"Program":" ","PCI":0,"Stroke_L":"III","Cardiac_L":"II","Stroke":"III","Funding":"Not For Profit","Dialysis":1,"Unique_id":97,"Ebola":" ","Trauma_D":" ","Beds_ER":0,"Beds_ERT":0,"Beds_OR":0,"Beds_ORT":0,"Rehab_L":" ","Trauma_H":0,"Heli":"No","Weblink":"http://www.wsha.org/hospitalDetail.cfm?HID=77"},"geometry":{"type":"Point","coordinates":[-122.37954969039765,47.66737354117118]}},{"type":"Feature","properties":{"OBJECTID":92,"NAME":"VA Puget Sound Health Care System","LINK":109,"DOHLIC":0,"ADDRESS":"1660 S. Columbian Way","CITY":"Seattle","ZIP":"98108","ZIP4":"1597","PHONE":"(206) 762-1010","FAX":"(206) 764-2250","BED_ICU":0,"BED_NURSIN":0,"BED_CHEM":0,"BED_PSY":0,"BED_ACUTE":355,"BED_TOTAL":459,"BED_LIC":0,"BASSINETTE":0,"ACUTE":"Yes","ICU":"No","PSYCHEM":"No","CAH":"No","NEON":0,"TRAUMA_P":0,"TRAUMA_G":0,"OPEN_HEART":0,"COUNTY":"KING CO.","SHORT_NAME":"VA","PSC":0,"REHAB":" ","Cardiac":"Yes","HAI_Link":0,"VAP_Link":0,"Program":" ","PCI":1,"Stroke_L":" ","Cardiac_L":" ","Stroke":" ","Funding":"Military","Dialysis":1,"Unique_id":98,"Ebola":" ","Trauma_D":" ","Beds_ER":0,"Beds_ERT":0,"Beds_OR":0,"Beds_ORT":0,"Rehab_L":" ","Trauma_H":0,"Heli":"No","Weblink":"http://www.wsha.org/hospitalDetail.cfm?HID=149"},"geometry":{"type":"Point","coordinates":[-122.30802565967602,47.563231031764666]}},{"type":"Feature","properties":{"OBJECTID":93,"NAME":"UW Medicine/Harborview Medical Center","LINK":26,"DOHLIC":29,"ADDRESS":"325 Ninth Ave","CITY":"Seattle","ZIP":"98104","ZIP4":"2499","PHONE":"(206) 731-3000","FAX":"(206) 731-8551","BED_ICU":89,"BED_NURSIN":0,"BED_CHEM":0,"BED_PSY":61,"BED_ACUTE":292,"BED_TOTAL":413,"BED_LIC":413,"BASSINETTE":0,"ACUTE":"Yes","ICU":"Yes","PSYCHEM":"Yes","CAH":"No","NEON":4,"TRAUMA_P":1,"TRAUMA_G":1,"OPEN_HEART":0,"COUNTY":"KING CO.","SHORT_NAME":"Harborview","PSC":3,"REHAB":"IR","Cardiac":"Yes","HAI_Link":26,"VAP_Link":26,"Program":"Healthcare Acquired Infections","PCI":1,"Stroke_L":"I","Cardiac_L":"I","Stroke":"I","Funding":"County","Dialysis":1,"Unique_id":99,"Ebola":"Treatment","Trauma_D":"I","Beds_ER":47,"Beds_ERT":47,"Beds_OR":24,"Beds_ORT":24,"Rehab_L":"I","Trauma_H":1,"Heli":"Yes","Weblink":"http://www.wsha.org/hospitalDetail.cfm?HID=74"},"geometry":{"type":"Point","coordinates":[-122.32398892182502,47.60386014474345]}},{"type":"Feature","properties":{"OBJECTID":94,"NAME":"UW Medicine/Northwest Hospital & Medical Center","LINK":55,"DOHLIC":130,"ADDRESS":"1550 North 115th St","CITY":"Seattle","ZIP":"98133","ZIP4":"8401","PHONE":"(206) 364-0500","FAX":"(206) 368-1949","BED_ICU":15,"BED_NURSIN":34,"BED_CHEM":0,"BED_PSY":27,"BED_ACUTE":136,"BED_TOTAL":213,"BED_LIC":345,"BASSINETTE":16,"ACUTE":"Yes","ICU":"Yes","PSYCHEM":"Yes","CAH":"No","NEON":2,"TRAUMA_P":0,"TRAUMA_G":4,"OPEN_HEART":1,"COUNTY":"KING CO.","SHORT_NAME":"Northwest","PSC":3,"REHAB":"IIR","Cardiac":"Yes","HAI_Link":55,"VAP_Link":55,"Program":"Healthcare Acquired Infections","PCI":1,"Stroke_L":"I","Cardiac_L":"I","Stroke":"I","Funding":"Not For Profit","Dialysis":1,"Unique_id":100,"Ebola":" ","Trauma_D":"IV","Beds_ER":23,"Beds_ERT":2,"Beds_OR":11,"Beds_ORT":9,"Rehab_L":"II","Trauma_H":1,"Heli":"Yes","Weblink":"http://www.wsha.org/hospitalDetail.cfm?HID=75"},"geometry":{"type":"Point","coordinates":[-122.33885129608738,47.71334434080934]}},{"type":"Feature","properties":{"OBJECTID":95,"NAME":"Overlake Hospital Medical Center","LINK":61,"DOHLIC":131,"ADDRESS":"1035 116th Ave NE","CITY":"Bellevue","ZIP":"98004","ZIP4":"4686","PHONE":"(425) 688-5000","FAX":"(425) 688-5959","BED_ICU":31,"BED_NURSIN":0,"BED_CHEM":0,"BED_PSY":37,"BED_ACUTE":191,"BED_TOTAL":347,"BED_LIC":257,"BASSINETTE":40,"ACUTE":"Yes","ICU":"Yes","PSYCHEM":"Yes","CAH":"No","NEON":3,"TRAUMA_P":0,"TRAUMA_G":3,"OPEN_HEART":1,"COUNTY":"KING CO.","SHORT_NAME":"Overlake","PSC":3,"REHAB":" ","Cardiac":"Yes","HAI_Link":61,"VAP_Link":61,"Program":"Healthcare Acquired Infections","PCI":1,"Stroke_L":"II","Cardiac_L":"I","Stroke":"II","Funding":"Not For Profit","Dialysis":1,"Unique_id":101,"Ebola":" ","Trauma_D":"III","Beds_ER":40,"Beds_ERT":37,"Beds_OR":15,"Beds_ORT":12,"Rehab_L":" ","Trauma_H":1,"Heli":"Yes","Weblink":"http://www.wsha.org/hospitalDetail.cfm?HID=14"},"geometry":{"type":"Point","coordinates":[-122.18717515376588,47.620491352855424]}},{"type":"Feature","properties":{"OBJECTID":96,"NAME":"Seattle Cancer Care Alliance","LINK":85,"DOHLIC":204,"ADDRESS":"825 Eastlake Ave E","CITY":"Seattle","ZIP":"98109","ZIP4":"1023","PHONE":"(206) 667-7222","FAX":"(206)288-6643","BED_ICU":20,"BED_NURSIN":0,"BED_CHEM":0,"BED_PSY":0,"BED_ACUTE":0,"BED_TOTAL":20,"BED_LIC":20,"BASSINETTE":0,"ACUTE":"Yes","ICU":"Yes","PSYCHEM":"No","CAH":"No","NEON":4,"TRAUMA_P":0,"TRAUMA_G":0,"OPEN_HEART":0,"COUNTY":"KING CO.","SHORT_NAME":"Seattle CCA","PSC":0,"REHAB":" ","Cardiac":"No","HAI_Link":0,"VAP_Link":0,"Program":" ","PCI":0,"Stroke_L":" ","Cardiac_L":" ","Stroke":" ","Funding":"Not For Profit","Dialysis":1,"Unique_id":103,"Ebola":" ","Trauma_D":" ","Beds_ER":0,"Beds_ERT":0,"Beds_OR":0,"Beds_ORT":0,"Rehab_L":" ","Trauma_H":0,"Heli":"No","Weblink":"http://www.wsha.org/hospitalDetail.cfm?HID=142"},"geometry":{"type":"Point","coordinates":[-122.32973572836892,47.626454887896905]}},{"type":"Feature","properties":{"OBJECTID":97,"NAME":"Yakima Valley Memorial Hospital","LINK":118,"DOHLIC":58,"ADDRESS":"2811 Tieton Drive","CITY":"Yakima","ZIP":"98902","ZIP4":"3799","PHONE":"(509) 575-8000","FAX":"(509) 575-8921","BED_ICU":11,"BED_NURSIN":0,"BED_CHEM":0,"BED_PSY":18,"BED_ACUTE":208,"BED_TOTAL":226,"BED_LIC":226,"BASSINETTE":28,"ACUTE":"Yes","ICU":"Yes","PSYCHEM":"Yes","CAH":"No","NEON":3,"TRAUMA_P":3,"TRAUMA_G":3,"OPEN_HEART":2,"COUNTY":"YAKIMA CO.","SHORT_NAME":"Yakima","PSC":0,"REHAB":"IIR","Cardiac":"Yes","HAI_Link":118,"VAP_Link":118,"Program":"Healthcare Acquired Infections","PCI":1,"Stroke_L":"II","Cardiac_L":"I","Stroke":"II","Funding":"Not For Profit","Dialysis":1,"Unique_id":104,"Ebola":" ","Trauma_D":"III","Beds_ER":24,"Beds_ERT":24,"Beds_OR":7,"Beds_ORT":7,"Rehab_L":" ","Trauma_H":1,"Heli":"Yes","Weblink":"http://www.wsha.org/hospitalDetail.cfm?HID=111"},"geometry":{"type":"Point","coordinates":[-120.54794654451612,46.59374521171193]}},{"type":"Feature","properties":{"OBJECTID":98,"NAME":"Fairfax Hospital","LINK":2,"DOHLIC":0,"ADDRESS":"10200 NE 132nd St","CITY":"Kirkland","ZIP":"98034","ZIP4":"2899","PHONE":"(425) 821-2000","FAX":"(425) 821-9010","BED_ICU":0,"BED_NURSIN":0,"BED_CHEM":0,"BED_PSY":133,"BED_ACUTE":0,"BED_TOTAL":95,"BED_LIC":133,"BASSINETTE":0,"ACUTE":"No","ICU":"No","PSYCHEM":"Yes","CAH":"No","NEON":0,"TRAUMA_P":0,"TRAUMA_G":0,"OPEN_HEART":0,"COUNTY":"KING CO.","SHORT_NAME":"Fairfax","PSC":0,"REHAB":" ","Cardiac":" ","HAI_Link":0,"VAP_Link":0,"Program":" ","PCI":0,"Stroke_L":" ","Cardiac_L":" ","Stroke":" ","Funding":"Proprietary","Dialysis":0,"Unique_id":105,"Ebola":" ","Trauma_D":" ","Beds_ER":0,"Beds_ERT":0,"Beds_OR":0,"Beds_ORT":0,"Rehab_L":" ","Trauma_H":0,"Heli":"No","Weblink":"http://www.wsha.org/hospitalDetail.cfm?HID=43"},"geometry":{"type":"Point","coordinates":[-122.20427341349163,47.719122152113385]}},{"type":"Feature","properties":{"OBJECTID":99,"NAME":"Valley General Hospital","LINK":103,"DOHLIC":104,"ADDRESS":"14701 179th Ave SE","CITY":"Monroe","ZIP":"98272","ZIP4":"1108","PHONE":"(360) 794-7497","FAX":"(360) 794-1486","BED_ICU":2,"BED_NURSIN":0,"BED_CHEM":26,"BED_PSY":12,"BED_ACUTE":28,"BED_TOTAL":72,"BED_LIC":72,"BASSINETTE":4,"ACUTE":"Yes","ICU":"Yes","PSYCHEM":"Yes","CAH":"No","NEON":1,"TRAUMA_P":0,"TRAUMA_G":4,"OPEN_HEART":0,"COUNTY":"SNOHOMISH CO.","SHORT_NAME":"Valley General","PSC":0,"REHAB":" ","Cardiac":"No","HAI_Link":103,"VAP_Link":103,"Program":"Healthcare Acquired Infections","PCI":0,"Stroke_L":"III","Cardiac_L":"II","Stroke":"III","Funding":"District","Dialysis":1,"Unique_id":106,"Ebola":" ","Trauma_D":"IV","Beds_ER":14,"Beds_ERT":1,"Beds_OR":3,"Beds_ORT":1,"Rehab_L":" ","Trauma_H":1,"Heli":"Yes","Weblink":"http://www.wsha.org/hospitalDetail.cfm?HID=48"},"geometry":{"type":"Point","coordinates":[-121.98979961700589,47.86421991685269]}},{"type":"Feature","properties":{"OBJECTID":100,"NAME":"MultiCare Good Samaritan Hospital","LINK":21,"DOHLIC":60221541,"ADDRESS":"407 14Th Ave SE","CITY":"Puyallup","ZIP":"98372","ZIP4":"3851","PHONE":"(253) 848-6661","FAX":"(253) 845-5966","BED_ICU":40,"BED_NURSIN":0,"BED_CHEM":0,"BED_PSY":0,"BED_ACUTE":200,"BED_TOTAL":275,"BED_LIC":225,"BASSINETTE":18,"ACUTE":"Yes","ICU":"Yes","PSYCHEM":"No","CAH":"No","NEON":2,"TRAUMA_P":0,"TRAUMA_G":3,"OPEN_HEART":2,"COUNTY":"PIERCE CO.","SHORT_NAME":"Good Samaritan","PSC":0,"REHAB":"IRP","Cardiac":"Yes","HAI_Link":21,"VAP_Link":21,"Program":"Healthcare Acquired Infections","PCI":1,"Stroke_L":"II","Cardiac_L":"I","Stroke":"III","Funding":"Not For Profit","Dialysis":1,"Unique_id":107,"Ebola":" ","Trauma_D":"III","Beds_ER":46,"Beds_ERT":42,"Beds_OR":8,"Beds_ORT":1,"Rehab_L":"I","Trauma_H":1,"Heli":"Yes","Weblink":"http://www.wsha.org/hospitalDetail.cfm?HID=65"},"geometry":{"type":"Point","coordinates":[-122.2895299995926,47.17917999867384]}},{"type":"Feature","properties":{"OBJECTID":101,"NAME":"Swedish Medical Center - Cherry Hill Campus","LINK":97,"DOHLIC":60329940,"ADDRESS":"500 17th Ave","CITY":"Seattle","ZIP":"98122","ZIP4":"5799","PHONE":"(206) 320-2000","FAX":"(206) 320-3154","BED_ICU":33,"BED_NURSIN":51,"BED_CHEM":0,"BED_PSY":36,"BED_ACUTE":174,"BED_TOTAL":198,"BED_LIC":436,"BASSINETTE":12,"ACUTE":"Yes","ICU":"Yes","PSYCHEM":"Yes","CAH":"No","NEON":4,"TRAUMA_P":0,"TRAUMA_G":0,"OPEN_HEART":1,"COUNTY":"KING CO.","SHORT_NAME":"Swedish","PSC":3,"REHAB":" ","Cardiac":"No","HAI_Link":97,"VAP_Link":97,"Program":"Healthcare Acquired Infections","PCI":0,"Stroke_L":"I","Cardiac_L":"I","Stroke":"I","Funding":"Not For Profit","Dialysis":1,"Unique_id":108,"Ebola":" ","Trauma_D":" ","Beds_ER":0,"Beds_ERT":0,"Beds_OR":0,"Beds_ORT":0,"Rehab_L":" ","Trauma_H":0,"Heli":"No","Weblink":"http://www.wsha.org/hospitalDetail.cfm?HID=78"},"geometry":{"type":"Point","coordinates":[-122.31059794468466,47.60772122050089]}},{"type":"Feature","properties":{"OBJECTID":102,"NAME":"St. Elizabeth Hospital","LINK":16,"DOHLIC":35,"ADDRESS":"1455 Battersby Avenue","CITY":"Enumclaw","ZIP":"98022","ZIP4":"0218","PHONE":"(360) 825-2505","FAX":"(360) 825-9046","BED_ICU":0,"BED_NURSIN":0,"BED_CHEM":0,"BED_PSY":0,"BED_ACUTE":35,"BED_TOTAL":25,"BED_LIC":38,"BASSINETTE":8,"ACUTE":"Yes","ICU":"Yes","PSYCHEM":"No","CAH":"Yes","NEON":1,"TRAUMA_P":0,"TRAUMA_G":5,"OPEN_HEART":0,"COUNTY":"KING CO.","SHORT_NAME":"St. Elizabeth","PSC":0,"REHAB":" ","Cardiac":"No","HAI_Link":16,"VAP_Link":16,"Program":"Healthcare Acquired Infections","PCI":0,"Stroke_L":"III","Cardiac_L":"II","Stroke":"III","Funding":"Not For Profit","Dialysis":1,"Unique_id":110,"Ebola":" ","Trauma_D":"V","Beds_ER":11,"Beds_ERT":1,"Beds_OR":3,"Beds_ORT":0,"Rehab_L":" ","Trauma_H":1,"Heli":"Yes","Weblink":"http://www.wsha.org/hospitalDetail.cfm?HID=32"},"geometry":{"type":"Point","coordinates":[-121.98838953287017,47.2081668688793]}},{"type":"Feature","properties":{"OBJECTID":103,"NAME":"Group Health Cooperative/Central Hospital","LINK":25,"DOHLIC":20,"ADDRESS":"201 16th Avenue East","CITY":"Seattle","ZIP":"98112","ZIP4":"5298","PHONE":"(206) 326-3000","FAX":"(206) 448-5105","BED_ICU":0,"BED_NURSIN":0,"BED_CHEM":0,"BED_PSY":0,"BED_ACUTE":39,"BED_TOTAL":14,"BED_LIC":326,"BASSINETTE":25,"ACUTE":"Yes","ICU":"No","PSYCHEM":"No","CAH":"No","NEON":2,"TRAUMA_P":0,"TRAUMA_G":0,"OPEN_HEART":0,"COUNTY":"KING CO.","SHORT_NAME":"GH","PSC":0,"REHAB":" ","Cardiac":"No","HAI_Link":0,"VAP_Link":0,"Program":" ","PCI":0,"Stroke_L":" ","Cardiac_L":" ","Stroke":" ","Funding":"Not For Profit","Dialysis":1,"Unique_id":111,"Ebola":" ","Trauma_D":" ","Beds_ER":0,"Beds_ERT":0,"Beds_OR":0,"Beds_ORT":0,"Rehab_L":" ","Trauma_H":0,"Heli":"No","Weblink":"http://www.wsha.org/hospitalDetail.cfm?HID=73"},"geometry":{"type":"Point","coordinates":[-122.31205809069975,47.61998187832998]}},{"type":"Feature","properties":{"OBJECTID":104,"NAME":"Highline Medical Center","LINK":29,"DOHLIC":126,"ADDRESS":"16251 Sylvester Rd SW","CITY":"Burien","ZIP":"98166","ZIP4":"3052","PHONE":"(206) 244-9970","FAX":"(206) 248-5385","BED_ICU":9,"BED_NURSIN":0,"BED_CHEM":0,"BED_PSY":0,"BED_ACUTE":103,"BED_TOTAL":154,"BED_LIC":269,"BASSINETTE":17,"ACUTE":"Yes","ICU":"Yes","PSYCHEM":"No","CAH":"No","NEON":2,"TRAUMA_P":0,"TRAUMA_G":4,"OPEN_HEART":0,"COUNTY":"KING CO.","SHORT_NAME":"Highline Community","PSC":0,"REHAB":" ","Cardiac":"Yes","HAI_Link":29,"VAP_Link":29,"Program":"Healthcare Acquired Infections","PCI":0,"Stroke_L":"II","Cardiac_L":"I","Stroke":"II","Funding":"Not For Profit","Dialysis":1,"Unique_id":112,"Ebola":" ","Trauma_D":"IV","Beds_ER":31,"Beds_ERT":29,"Beds_OR":2,"Beds_ORT":1,"Rehab_L":" ","Trauma_H":1,"Heli":"Yes","Weblink":"http://www.wsha.org/hospitalDetail.cfm?HID=18"},"geometry":{"type":"Point","coordinates":[-122.34321221878443,47.45743558587585]}},{"type":"Feature","properties":{"OBJECTID":105,"NAME":"Kindred Hospital - Northgate","LINK":36,"DOHLIC":148,"ADDRESS":"10631 - 8th Avenue N.E.","CITY":"Seattle","ZIP":"98125","ZIP4":"7298","PHONE":"(206) 364-2050","FAX":"(206) 361-5722","BED_ICU":4,"BED_NURSIN":0,"BED_CHEM":0,"BED_PSY":0,"BED_ACUTE":76,"BED_TOTAL":30,"BED_LIC":80,"BASSINETTE":0,"ACUTE":"Yes","ICU":"Yes","PSYCHEM":"No","CAH":"No","NEON":4,"TRAUMA_P":0,"TRAUMA_G":0,"OPEN_HEART":0,"COUNTY":"KING CO.","SHORT_NAME":"Kindred","PSC":0,"REHAB":" ","Cardiac":"No","HAI_Link":36,"VAP_Link":36,"Program":"Healthcare Acquired Infections","PCI":0,"Stroke_L":" ","Cardiac_L":" ","Stroke":" ","Funding":"Proprietary","Dialysis":1,"Unique_id":113,"Ebola":" ","Trauma_D":" ","Beds_ER":0,"Beds_ERT":0,"Beds_OR":0,"Beds_ORT":0,"Rehab_L":" ","Trauma_H":0,"Heli":"No","Weblink":"http://www.wsha.org/hospitalDetail.cfm?HID=81"},"geometry":{"type":"Point","coordinates":[-122.3225821669032,47.70680527820261]}},{"type":"Feature","properties":{"OBJECTID":106,"NAME":"Providence St. Peter Hospital","LINK":68,"DOHLIC":159,"ADDRESS":"413 Lilly Rd NE","CITY":"Olympia","ZIP":"98506","ZIP4":"5166","PHONE":"(360) 491-9480","FAX":"(360) 493-4071","BED_ICU":25,"BED_NURSIN":0,"BED_CHEM":50,"BED_PSY":26,"BED_ACUTE":314,"BED_TOTAL":343,"BED_LIC":340,"BASSINETTE":15,"ACUTE":"Yes","ICU":"Yes","PSYCHEM":"Yes","CAH":"No","NEON":2,"TRAUMA_P":0,"TRAUMA_G":3,"OPEN_HEART":1,"COUNTY":"THURSTON CO.","SHORT_NAME":"St. Peter","PSC":3,"REHAB":"IIR","Cardiac":"Yes","HAI_Link":68,"VAP_Link":68,"Program":"Healthcare Acquired Infections","PCI":1,"Stroke_L":"I","Cardiac_L":"I","Stroke":"I","Funding":"Not For Profit","Dialysis":1,"Unique_id":114,"Ebola":" ","Trauma_D":"III","Beds_ER":44,"Beds_ERT":2,"Beds_OR":11,"Beds_ORT":11,"Rehab_L":"II","Trauma_H":1,"Heli":"Yes","Weblink":"http://www.wsha.org/hospitalDetail.cfm?HID=55"},"geometry":{"type":"Point","coordinates":[-122.84738644588948,47.05294191120151]}},{"type":"Feature","properties":{"OBJECTID":107,"NAME":"St. Clare Hospital","LINK":76,"DOHLIC":132,"ADDRESS":"11315 Bridgeport Way SW","CITY":"Lakewood","ZIP":"98499","ZIP4":"3070","PHONE":"(253) 588-1711","FAX":"(253) 584-3001","BED_ICU":10,"BED_NURSIN":0,"BED_CHEM":0,"BED_PSY":0,"BED_ACUTE":76,"BED_TOTAL":106,"BED_LIC":106,"BASSINETTE":12,"ACUTE":"Yes","ICU":"Yes","PSYCHEM":"No","CAH":"No","NEON":4,"TRAUMA_P":0,"TRAUMA_G":4,"OPEN_HEART":0,"COUNTY":"PIERCE CO.","SHORT_NAME":"St. Clare","PSC":0,"REHAB":" ","Cardiac":"No","HAI_Link":76,"VAP_Link":76,"Program":"Healthcare Acquired Infections","PCI":0,"Stroke_L":"III","Cardiac_L":"II","Stroke":"III","Funding":"Not For Profit","Dialysis":1,"Unique_id":115,"Ebola":" ","Trauma_D":"IV","Beds_ER":25,"Beds_ERT":18,"Beds_OR":5,"Beds_ORT":5,"Rehab_L":" ","Trauma_H":1,"Heli":"Yes","Weblink":"http://www.wsha.org/hospitalDetail.cfm?HID=100"},"geometry":{"type":"Point","coordinates":[-122.5020399994155,47.15430999937185]}},{"type":"Feature","properties":{"OBJECTID":108,"NAME":"St. Francis Hospital","LINK":77,"DOHLIC":201,"ADDRESS":"34515 9th Avenue South","CITY":"Federal Way","ZIP":"98003","ZIP4":"6799","PHONE":"(253) 838-9700","FAX":"(253) 591-6613","BED_ICU":14,"BED_NURSIN":0,"BED_CHEM":0,"BED_PSY":10,"BED_ACUTE":90,"BED_TOTAL":134,"BED_LIC":110,"BASSINETTE":16,"ACUTE":"Yes","ICU":"Yes","PSYCHEM":"Yes","CAH":"No","NEON":1,"TRAUMA_P":0,"TRAUMA_G":4,"OPEN_HEART":0,"COUNTY":"KING CO.","SHORT_NAME":"St. Francis","PSC":0,"REHAB":" ","Cardiac":"Yes","HAI_Link":77,"VAP_Link":77,"Program":"Healthcare Acquired Infections","PCI":1,"Stroke_L":"III","Cardiac_L":"I","Stroke":"III","Funding":"Not For Profit","Dialysis":1,"Unique_id":116,"Ebola":" ","Trauma_D":"IV","Beds_ER":24,"Beds_ERT":2,"Beds_OR":8,"Beds_ORT":8,"Rehab_L":" ","Trauma_H":1,"Heli":"Yes","Weblink":"http://www.wsha.org/hospitalDetail.cfm?HID=37"},"geometry":{"type":"Point","coordinates":[-122.32739235086233,47.29269775336918]}},{"type":"Feature","properties":{"OBJECTID":109,"NAME":"Legacy Salmon Creek Medical Center","LINK":24,"DOHLIC":208,"ADDRESS":"221 NE 139th Street","CITY":"Vancouver","ZIP":"98686","ZIP4":" ","PHONE":"(360) 487-1000","FAX":" ","BED_ICU":0,"BED_NURSIN":0,"BED_CHEM":0,"BED_PSY":0,"BED_ACUTE":0,"BED_TOTAL":220,"BED_LIC":0,"BASSINETTE":0,"ACUTE":"Yes","ICU":" ","PSYCHEM":" ","CAH":"No","NEON":3,"TRAUMA_P":0,"TRAUMA_G":0,"OPEN_HEART":0,"COUNTY":"CLARK CO.","SHORT_NAME":"Legacy Salmon Creek","PSC":3,"REHAB":" ","Cardiac":"No","HAI_Link":24,"VAP_Link":24,"Program":"Healthcare Acquired Infections","PCI":0,"Stroke_L":"II","Cardiac_L":"II","Stroke":"II","Funding":"Not For Profit","Dialysis":1,"Unique_id":117,"Ebola":" ","Trauma_D":" ","Beds_ER":0,"Beds_ERT":0,"Beds_OR":0,"Beds_ORT":0,"Rehab_L":" ","Trauma_H":0,"Heli":"Yes","Weblink":"http://www.wsha.org/hospitalDetail.cfm?HID=155"},"geometry":{"type":"Point","coordinates":[-122.6482415431938,45.720983521886566]}},{"type":"Feature","properties":{"OBJECTID":110,"NAME":"MultiCare Allenmore Hospital","LINK":98,"DOHLIC":0,"ADDRESS":"1901 S. Union Ave","CITY":"Tacoma","ZIP":"98411","ZIP4":"0414","PHONE":" ","FAX":" ","BED_ICU":0,"BED_NURSIN":0,"BED_CHEM":0,"BED_PSY":0,"BED_ACUTE":0,"BED_TOTAL":75,"BED_LIC":0,"BASSINETTE":0,"ACUTE":"Yes","ICU":" ","PSYCHEM":" ","CAH":"No","NEON":0,"TRAUMA_P":0,"TRAUMA_G":0,"OPEN_HEART":0,"COUNTY":"PIERCE CO.","SHORT_NAME":"Allenmore","PSC":0,"REHAB":" ","Cardiac":"Yes","HAI_Link":98,"VAP_Link":98,"Program":"Healthcare Acquired Infections","PCI":0,"Stroke_L":"III","Cardiac_L":"II","Stroke":"III","Funding":"Not For Profit","Dialysis":1,"Unique_id":118,"Ebola":" ","Trauma_D":" ","Beds_ER":0,"Beds_ERT":0,"Beds_OR":0,"Beds_ORT":0,"Rehab_L":" ","Trauma_H":1,"Heli":"No","Weblink":"http://www.wsha.org/hospitalDetail.cfm?HID=96"},"geometry":{"type":"Point","coordinates":[-122.48105458533372,47.24164647802821]}},{"type":"Feature","properties":{"OBJECTID":111,"NAME":"St. Anthony Hospital","LINK":13,"DOHLIC":60075769,"ADDRESS":"11567 Canterwood Blvd NW","CITY":"Gig Harbor","ZIP":"98332","ZIP4":"5812","PHONE":" ","FAX":" ","BED_ICU":12,"BED_NURSIN":0,"BED_CHEM":0,"BED_PSY":0,"BED_ACUTE":0,"BED_TOTAL":80,"BED_LIC":0,"BASSINETTE":0,"ACUTE":"Yes","ICU":" ","PSYCHEM":" ","CAH":"No","NEON":0,"TRAUMA_P":0,"TRAUMA_G":4,"OPEN_HEART":0,"COUNTY":"PIERCE CO.","SHORT_NAME":"St. Anthony","PSC":0,"REHAB":" ","Cardiac":"No","HAI_Link":13,"VAP_Link":0,"Program":"Healthcare Acquired Infections","PCI":0,"Stroke_L":"II","Cardiac_L":"I","Stroke":"II","Funding":"Not For Profit","Dialysis":1,"Unique_id":119,"Ebola":" ","Trauma_D":"IV","Beds_ER":20,"Beds_ERT":8,"Beds_OR":5,"Beds_ORT":1,"Rehab_L":" ","Trauma_H":1,"Heli":"Yes","Weblink":"http://www.wsha.org/hospitalDetail.cfm?HID=175"},"geometry":{"type":"Point","coordinates":[-122.6135501805578,47.363022735623424]}},{"type":"Feature","properties":{"OBJECTID":112,"NAME":"Swedish/Issaquah","LINK":0,"DOHLIC":60256001,"ADDRESS":"2005 NW Sammamish Road","CITY":"Issaquah","ZIP":"98027","ZIP4":" ","PHONE":" ","FAX":" ","BED_ICU":0,"BED_NURSIN":0,"BED_CHEM":0,"BED_PSY":0,"BED_ACUTE":0,"BED_TOTAL":120,"BED_LIC":0,"BASSINETTE":0,"ACUTE":"Yes","ICU":" ","PSYCHEM":" ","CAH":"No","NEON":1,"TRAUMA_P":0,"TRAUMA_G":0,"OPEN_HEART":0,"COUNTY":"KING CO.","SHORT_NAME":"Swedish","PSC":0,"REHAB":" ","Cardiac":" ","HAI_Link":0,"VAP_Link":0,"Program":" ","PCI":0,"Stroke_L":"II","Cardiac_L":"I","Stroke":" ","Funding":"Not For Profit","Dialysis":1,"Unique_id":120,"Ebola":"Assessment","Trauma_D":" ","Beds_ER":0,"Beds_ERT":0,"Beds_OR":0,"Beds_ORT":0,"Rehab_L":" ","Trauma_H":0,"Heli":"No","Weblink":"http://www.wsha.org/hospitalDetail.cfm?HID=188"},"geometry":{"type":"Point","coordinates":[-122.0654437988984,47.55145322482264]}},{"type":"Feature","properties":{"OBJECTID":113,"NAME":"Swedish Medical Center - Redmond ED","LINK":0,"DOHLIC":0,"ADDRESS":"18100 Union Hill Road","CITY":"Redmond","ZIP":"98052","ZIP4":" ","PHONE":"(425) 498-2001","FAX":" ","BED_ICU":0,"BED_NURSIN":0,"BED_CHEM":0,"BED_PSY":0,"BED_ACUTE":0,"BED_TOTAL":0,"BED_LIC":0,"BASSINETTE":0,"ACUTE":"Yes","ICU":" ","PSYCHEM":" ","CAH":"No","NEON":0,"TRAUMA_P":0,"TRAUMA_G":0,"OPEN_HEART":0,"COUNTY":"KING CO.","SHORT_NAME":"Swedish","PSC":0,"REHAB":" ","Cardiac":" ","HAI_Link":0,"VAP_Link":0,"Program":" ","PCI":0,"Stroke_L":" ","Cardiac_L":" ","Stroke":" ","Funding":"Not For Profit","Dialysis":1,"Unique_id":122,"Ebola":" ","Trauma_D":" ","Beds_ER":0,"Beds_ERT":0,"Beds_OR":0,"Beds_ORT":0,"Rehab_L":" ","Trauma_H":0,"Heli":"No","Weblink":"http://www.swedish.org/locations/redmond-campus"},"geometry":{"type":"Point","coordinates":[-122.09912690706742,47.676313300391975]}},{"type":"Feature","properties":{"OBJECTID":114,"NAME":"MultiCare Tacoma General Hospital","LINK":98,"DOHLIC":176,"ADDRESS":"315 Martin Luther King Jr. Way","CITY":"Tacoma","ZIP":"98405","ZIP4":"4291","PHONE":"(253) 403-1000","FAX":"(253) 552-4395","BED_ICU":26,"BED_NURSIN":0,"BED_CHEM":0,"BED_PSY":0,"BED_ACUTE":251,"BED_TOTAL":405,"BED_LIC":521,"BASSINETTE":34,"ACUTE":"Yes","ICU":"Yes","PSYCHEM":"No","CAH":"No","NEON":3,"TRAUMA_P":0,"TRAUMA_G":2,"OPEN_HEART":1,"COUNTY":"PIERCE CO.","SHORT_NAME":"Tacoma General","PSC":2,"REHAB":" ","Cardiac":"Yes","HAI_Link":98,"VAP_Link":98,"Program":"Healthcare Acquired Infections","PCI":1,"Stroke_L":"I","Cardiac_L":"I","Stroke":"I","Funding":"Not For Profit","Dialysis":1,"Unique_id":109,"Ebola":" ","Trauma_D":"II","Beds_ER":31,"Beds_ERT":3,"Beds_OR":16,"Beds_ORT":1,"Rehab_L":" ","Trauma_H":1,"Heli":"Yes","Weblink":"http://www.wsha.org/hospitalDetail.cfm?HID=102"},"geometry":{"type":"Point","coordinates":[-122.45428396039783,47.25943767245471]}},{"type":"Feature","properties":{"OBJECTID":115,"NAME":"Peacehealth Peace Island Medical Center","LINK":0,"DOHLIC":60316803,"ADDRESS":"1117 Spring Street","CITY":"Friday Harbor","ZIP":"98250","ZIP4":" ","PHONE":"(360) 378-2141","FAX":" ","BED_ICU":0,"BED_NURSIN":0,"BED_CHEM":0,"BED_PSY":0,"BED_ACUTE":0,"BED_TOTAL":10,"BED_LIC":0,"BASSINETTE":0,"ACUTE":"Yes","ICU":" ","PSYCHEM":" ","CAH":"Yes","NEON":0,"TRAUMA_P":0,"TRAUMA_G":5,"OPEN_HEART":0,"COUNTY":"SAN JUAN CO.","SHORT_NAME":"Peace Island","PSC":0,"REHAB":" ","Cardiac":" ","HAI_Link":0,"VAP_Link":0,"Program":" ","PCI":0,"Stroke_L":" ","Cardiac_L":" ","Stroke":" ","Funding":" ","Dialysis":0,"Unique_id":124,"Ebola":" ","Trauma_D":"V","Beds_ER":5,"Beds_ERT":5,"Beds_OR":2,"Beds_ORT":0,"Rehab_L":" ","Trauma_H":1,"Heli":"No","Weblink":"http://www.wsha.org/hospitalDetail.cfm?HID=194"},"geometry":{"type":"Point","coordinates":[-123.02789661838709,48.52941911547272]}},{"type":"Feature","properties":{"OBJECTID":116,"NAME":"Summit Pacific Medical Center","LINK":45,"DOHLIC":186,"ADDRESS":"600 Main Street","CITY":"Elma","ZIP":"98541","ZIP4":" ","PHONE":"(360) 495-3244","FAX":"(360) 495-4566","BED_ICU":0,"BED_NURSIN":0,"BED_CHEM":0,"BED_PSY":0,"BED_ACUTE":24,"BED_TOTAL":10,"BED_LIC":24,"BASSINETTE":0,"ACUTE":"Yes","ICU":"No","PSYCHEM":"No","CAH":"Yes","NEON":4,"TRAUMA_P":0,"TRAUMA_G":5,"OPEN_HEART":0,"COUNTY":"GRAYS HARBOR CO.","SHORT_NAME":"Mark Reed","PSC":0,"REHAB":" ","Cardiac":"No","HAI_Link":0,"VAP_Link":0,"Program":" ","PCI":0,"Stroke_L":"III","Cardiac_L":"II","Stroke":"III","Funding":"District","Dialysis":1,"Unique_id":57,"Ebola":" ","Trauma_D":"V","Beds_ER":4,"Beds_ERT":1,"Beds_OR":0,"Beds_ORT":0,"Rehab_L":" ","Trauma_H":1,"Heli":"Yes","Weblink":"http://www.wsha.org/hospitalDetail.cfm?HID=47"},"geometry":{"type":"Point","coordinates":[-123.39239178847207,47.00592594516009]}},{"type":"Feature","properties":{"OBJECTID":117,"NAME":"Kindred Hospital - First Hill","LINK":0,"DOHLIC":60224358,"ADDRESS":"1334 Terry Ave","CITY":"Seattle","ZIP":"98101","ZIP4":" ","PHONE":" ","FAX":" ","BED_ICU":0,"BED_NURSIN":0,"BED_CHEM":0,"BED_PSY":0,"BED_ACUTE":0,"BED_TOTAL":50,"BED_LIC":0,"BASSINETTE":0,"ACUTE":"Yes","ICU":"Yes","PSYCHEM":" ","CAH":"No","NEON":0,"TRAUMA_P":0,"TRAUMA_G":0,"OPEN_HEART":0,"COUNTY":"KING CO.","SHORT_NAME":"Kindred","PSC":0,"REHAB":" ","Cardiac":" ","HAI_Link":0,"VAP_Link":0,"Program":" ","PCI":0,"Stroke_L":" ","Cardiac_L":" ","Stroke":" ","Funding":" ","Dialysis":1,"Unique_id":0,"Ebola":" ","Trauma_D":" ","Beds_ER":0,"Beds_ERT":0,"Beds_OR":0,"Beds_ORT":0,"Rehab_L":" ","Trauma_H":0,"Heli":"No","Weblink":"http://www.wsha.org/hospitalDetail.cfm?HID=185"},"geometry":{"type":"Point","coordinates":[-122.32843449959526,47.611421443288194]}},{"type":"Feature","properties":{"OBJECTID":118,"NAME":"Regional Hospital for Respiratory & Complex Care","LINK":74,"DOHLIC":202,"ADDRESS":"16251 Sylvester Road SW","CITY":"Burien","ZIP":"98166","ZIP4":" ","PHONE":"(206) 248-4521","FAX":"(206) 243-7002","BED_ICU":0,"BED_NURSIN":0,"BED_CHEM":0,"BED_PSY":0,"BED_ACUTE":31,"BED_TOTAL":31,"BED_LIC":27,"BASSINETTE":0,"ACUTE":"Yes","ICU":"No","PSYCHEM":"No","CAH":"No","NEON":4,"TRAUMA_P":0,"TRAUMA_G":0,"OPEN_HEART":0,"COUNTY":"KING CO.","SHORT_NAME":"Regional Hospital","PSC":0,"REHAB":" ","Cardiac":"No","HAI_Link":0,"VAP_Link":74,"Program":"Healthcare Acquired Infections","PCI":0,"Stroke_L":" ","Cardiac_L":" ","Stroke":" ","Funding":"Not For Profit","Dialysis":1,"Unique_id":102,"Ebola":" ","Trauma_D":" ","Beds_ER":0,"Beds_ERT":0,"Beds_OR":0,"Beds_ORT":0,"Rehab_L":" ","Trauma_H":0,"Heli":"No","Weblink":"http://www.wsha.org/hospitalDetail.cfm?HID=76"},"geometry":{"type":"Point","coordinates":[-122.34160544351171,47.4583502029889]}}]}